,ordernumber,orderdate,customer names,product name,channel,order quantity,unit price,line total,total unit cost,state_code,county,state,region,latitude,longitude,2017 budgets
46363,SO - 0002544,2017-01-01,NCS Group,Product 30,Wholesale,6,1239.5,7437.0,1028.7849999999999,NJ,Hudson County,New Jersey,Northeast,40.77955,-74.02375,1011609.684
46364,SO - 0006431,2017-01-01,Epic Group,Product 13,Wholesale,5,1829.1000000000001,9145.5,1207.2060000000001,CO,Mesa County,Colorado,West,39.06387,-108.55065,3720639.645
46365,SO - 0007491,2017-01-01,State Ltd,Product 15,Wholesale,9,2412.0,21708.0,1664.28,CA,Los Angeles County,California,West,33.96168,-118.35313,3299478.315
46366,SO - 0008741,2017-01-01,Fivebridge Ltd,Product 8,Wholesale,8,904.5,7236.0,750.735,IA,Dubuque County,Iowa,Midwest,42.50056,-90.66457,1085037.3290000001
46367,SO - 0009295,2017-01-01,Tagfeed Ltd,Product 2,Wholesale,12,1112.2,13346.400000000001,811.9060000000001,FL,Hernando County,Florida,South,28.47689,-82.52546,3050087.565
46368,SO - 0009270,2017-01-01,Rhynoodle Ltd,Product 2,Wholesale,11,3865.9,42524.9,2087.5860000000002,PA,Erie County,Pennsylvania,Northeast,42.12922,-80.08506,3050087.565
46369,SO - 0008849,2017-01-01,Twinte Group,Product 23,Wholesale,9,187.6,1688.3999999999999,116.312,CA,Monterey County,California,West,36.67774,-121.6555,1135815.7580000001
46370,SO - 0010564,2017-01-01,Accord Group,Product 3,Distributor,8,944.7,7557.6,651.843,TX,Johnson County/Tarrant County/Ellis County,Texas,South,32.56919,-97.12053,2642352.432
46371,SO - 0008694,2017-01-01,Blogspan Ltd,Product 2,Distributor,5,1085.4,5427.0,672.9480000000001,TN,Rutherford County,Tennessee,South,35.84562,-86.39027,3050087.565
46372,SO - 0009097,2017-01-01,CLINIQUE Ltd,Product 9,Distributor,10,174.20000000000002,1742.0000000000002,130.65,CT,New Haven County,Connecticut,Northeast,41.53815,-72.80704,710415.405
46373,SO - 0001333,2017-01-01,Wordpedia Ltd,Product 11,Wholesale,6,1139.0,6834.0,489.77,CA,San Mateo County,California,West,37.48522,-122.23635,1230458.484
46374,SO - 0002930,2017-01-01,Linklinks Ltd,Product 18,Distributor,6,2512.5,15075.0,1582.875,FL,Palm Beach County,Florida,South,26.82339,-80.13865,2309499.045
46375,SO - 0003538,2017-01-01,Aimbo Corp,Product 4,Wholesale,11,1051.9,11570.900000000001,831.0010000000001,MO,St. Charles County,Missouri,Midwest,38.78394,-90.48123,2885560.824
46376,SO - 0004653,2017-01-01,Pixoboo Corp,Product 1,Wholesale,9,1232.8,11095.199999999999,788.992,WA,Benton County,Washington,West,46.28569,-119.28446,3016489.209
46377,SO - 0004702,2017-01-01,Kaymbo Company,Product 26,Distributor,11,2519.2000000000003,27711.200000000004,1309.9840000000002,CA,Alameda County,California,West,37.87159,-122.27275,5685138.2700000005
46378,SO - 0005293,2017-01-01,Liberty Group,Product 3,Wholesale,10,1125.6000000000001,11256.000000000002,540.288,OK,Cleveland County,Oklahoma,South,35.22257,-97.43948,2642352.432
46379,SO - 0005571,2017-01-01,Chatterbri Ltd,Product 26,Wholesale,9,1112.2,10009.800000000001,556.1,CA,Kern County,California,West,35.37329,-119.01871,5685138.2700000005
46380,SO - 0007215,2017-01-01,SHISEIDO Ltd,Product 18,Export,6,1105.5,6633.0,840.1800000000001,IN,Vanderburgh County,Indiana,Midwest,37.97476,-87.55585,2309499.045
46381,SO - 0009517,2017-01-01,Blogspan Ltd,Product 5,Wholesale,12,2659.9,31918.800000000003,2207.717,MN,Olmsted County,Minnesota,Midwest,44.02163,-92.4699,3925424.5420000004
46382,SO - 0009687,2017-01-01,Skajo Ltd,Product 17,Distributor,9,998.3000000000001,8984.7,469.201,WI,Waukesha County,Wisconsin,Midwest,43.01168,-88.23148,2119616.824
46383,SO - 0001822,2017-01-01,Livepath Corp,Product 18,Distributor,8,1031.8,8254.4,866.7119999999999,TX,Rockwall County/Dallas County,Texas,South,32.91592,-96.54867,2309499.045
46384,SO - 0003716,2017-01-01,Realbuzz Ltd,Product 14,Wholesale,5,5728.5,28642.5,3437.1,OH,Cuyahoga County,Ohio,Midwest,41.40477,-81.72291,4028698.4090000005
46385,SO - 0004300,2017-01-01,MEIJER Corp,Product 28,Wholesale,9,2251.2000000000003,20260.800000000003,1868.496,CA,Orange County,California,West,33.74557,-117.86783,1003867.767
46386,SO - 0006401,2017-01-01,Aldi Ltd,Product 27,Export,12,1078.7,12944.400000000001,776.664,CA,Stanislaus County,California,West,37.6391,-120.99688,964940.2310000001
46387,SO - 0006761,2017-01-01,Twimbo Company,Product 4,Distributor,10,2613.0,26130.0,1829.1,GA,Peach County/Houston County,Georgia,South,32.5971,-83.65394,2885560.824
46388,SO - 0007043,2017-01-01,Army Group,Product 25,Distributor,10,1132.3,11323.0,826.579,CA,Orange County,California,West,33.60002,-117.672,5342315.484
46389,SO - 0007191,2017-01-01,Eayo Company,Product 5,Distributor,9,1078.7,9708.300000000001,722.729,GA,Clarke County,Georgia,South,33.95219,-83.36715,3925424.5420000004
46390,SO - 0010754,2017-01-01,Pacific Ltd,Product 6,Distributor,9,1963.1000000000001,17667.9,1629.373,FL,Hillsborough County,Florida,South,27.94752,-82.45843,1672229.416
46391,SO - 000378,2017-01-01,Jayo Company,Product 13,Wholesale,11,924.6,10170.6,536.268,OH,Stark County,Ohio,Midwest,40.8686,-81.36892,3720639.645
46392,SO - 0002059,2017-01-01,Feednation Corp,Product 3,Wholesale,9,1018.4,9165.6,407.36,TX,Dallas County,Texas,South,32.58986,-96.85695,2642352.432
46393,SO - 0009193,2017-01-01,NARS Group,Product 3,Distributor,5,891.1,4455.5,730.702,FL,Manatee County,Florida,South,27.49893,-82.57482,2642352.432
46394,SO - 0002350,2017-01-01,Johnson Ltd,Product 13,Distributor,12,884.4,10612.8,486.42,CT,New Haven County,Connecticut,Northeast,41.5585,-73.03668,3720639.645
46395,SO - 0004688,2017-01-01,Flipstorm Group,Product 25,Wholesale,8,1038.5,8308.0,633.485,CA,Riverside County,California,West,33.72835,-117.14642,5342315.484
46396,SO - 0005205,2017-01-01,CARDINAL Group,Product 8,Wholesale,11,2378.5,26163.5,1403.3149999999998,OK,Wagoner County/Tulsa County,Oklahoma,South,36.03653,-95.781,1085037.3290000001
46397,SO - 0007853,2017-01-01,Twimbo Company,Product 16,Distributor,8,1018.4,8147.2,448.096,AR,Pulaski County,Arkansas,South,34.74648,-92.28959,2062061.144
46398,SO - 0007956,2017-01-01,Aldi Ltd,Product 25,Distributor,9,877.7,7899.3,737.268,SD,Pennington County,South Dakota,Midwest,44.08054,-103.23101,5342315.484
46399,SO - 0009514,2017-01-01,Camido Company,Product 19,Wholesale,11,904.5,9949.5,587.9250000000001,GA,Muscogee County,Georgia,South,32.46098,-84.98771,1645841.6
46400,SO - 0008126,2017-01-01,Mylan Corp,Product 4,Wholesale,8,3276.3,26210.4,2588.277,IL,DuPage County,Illinois,Midwest,41.86177,-87.9761,2885560.824
46401,SO - 0008167,2017-01-01,Dynazzy Company,Product 14,Distributor,5,3892.7000000000003,19463.5,3075.233,CA,Los Angeles County,California,West,33.93029,-118.21146,4028698.4090000005
46402,SO - 000298,2017-01-02,Neutrogena Ltd,Product 19,Distributor,8,3899.4,31195.2,2027.688,IL,Sangamon County,Illinois,Midwest,39.79106,-89.64457,1645841.6
46403,SO - 0002724,2017-01-02,Epic Group,Product 2,Wholesale,5,234.5,1172.5,117.25,FL,Miami-Dade County,Florida,South,25.79065,-80.13005,3050087.565
46404,SO - 0002908,2017-01-02,Remedy Ltd,Product 6,Export,10,1072.0,10720.0,428.8,WY,Natrona County,Wyoming,West,42.86663,-106.31308,1672229.416
46405,SO - 0004368,2017-01-02,Bluezoom Group,Product 25,Distributor,8,3839.1,30712.8,1996.332,MI,Oakland County,Michigan,Midwest,42.56923,-83.38727,5342315.484
46406,SO - 0005705,2017-01-02,Centizu Company,Product 11,Wholesale,10,1963.1000000000001,19631.0,863.764,WI,Outagamie County/Calumet County/Winnebago County,Wisconsin,Midwest,44.27795,-88.38826,1230458.484
46407,SO - 0007404,2017-01-02,Oba Company,Product 26,Wholesale,9,5936.2,53425.799999999996,3561.72,NC,Chatham County/Wake County,North Carolina,South,35.78088,-78.81327,5685138.2700000005
46408,SO - 0008748,2017-01-02,Colgate-Pa Group,Product 7,Export,7,2338.3,16368.100000000002,1028.852,VA,Richmond city,Virginia,South,37.55376,-77.46026,889737.555
46409,SO - 0002435,2017-01-02,Bath Group,Product 5,Wholesale,8,1031.8,8254.4,443.674,CA,Sacramento County,California,West,38.61713,-121.32828,3925424.5420000004
46410,SO - 0004041,2017-01-02,Deseret Group,Product 4,Wholesale,5,2592.9,12964.5,1218.663,VA,Prince William County,Virginia,South,38.63706,-77.31109,2885560.824
46411,SO - 0004738,2017-01-02,Cogidoo Company,Product 20,Wholesale,7,837.5,5862.5,644.875,CA,Los Angeles County,California,West,34.57943,-118.11646,2067108.1199999999
46412,SO - 0005552,2017-01-02,Vimbo Company,Product 21,Export,7,3189.2000000000003,22324.4,2647.036,MI,Macomb County,Michigan,Midwest,42.49982,-83.00549,959899.2180000001
46413,SO - 0008746,2017-01-02,Cantrell Company,Product 16,Distributor,10,2244.5,22445.0,920.2449999999999,WA,Spokane County,Washington,West,47.65878,-117.42605,2062061.144
46414,SO - 0009209,2017-01-02,Twimbo Company,Product 25,Wholesale,12,207.70000000000002,2492.4,85.157,NY,Queens County,New York,Northeast,40.75,-73.86667,5342315.484
46415,SO - 0009420,2017-01-02,CLINIQUE Ltd,Product 12,Wholesale,5,5286.3,26431.5,3013.191,CA,Monterey County,California,West,36.67774,-121.6555,1356976.996
46416,SO - 000962,2017-01-02,Neutrogena Ltd,Product 4,Wholesale,9,837.5,7537.5,644.875,FL,Palm Beach County,Florida,South,26.71534,-80.05337,2885560.824
46417,SO - 0001665,2017-01-02,Golden Corp,Product 16,Export,6,824.1,4944.6,659.2800000000001,IN,Marion County,Indiana,Midwest,39.87632,-86.14291,2062061.144
46418,SO - 0001933,2017-01-02,Cogilith Group,Product 13,Distributor,6,254.6,1527.6,216.41,CA,Orange County,California,West,33.66946,-117.82311,3720639.645
46419,SO - 0003799,2017-01-02,Ascend Ltd,Product 15,Distributor,6,1045.2,6271.200000000001,616.668,IN,Marion County,Indiana,Midwest,39.77186,-86.26094,3299478.315
46420,SO - 0004235,2017-01-02,SAFEWAY Ltd,Product 8,Wholesale,9,4006.6,36059.4,1802.97,IL,Cook County,Illinois,Midwest,42.04114,-87.69006,1085037.3290000001
46421,SO - 0005690,2017-01-02,Zoonoodle Ltd,Product 13,Wholesale,5,804.0,4020.0,683.4,FL,Orange County,Florida,South,28.5641,-81.2114,3720639.645
46422,SO - 0009993,2017-01-02,Skyvu Group,Product 1,Wholesale,11,3872.6,42598.6,1665.2179999999998,CA,Los Angeles County,California,West,33.96085,-118.04173,3016489.209
46423,SO - 0001424,2017-01-02,Nlounge Ltd,Product 19,Distributor,7,1688.4,11818.800000000001,844.2,GA,Muscogee County,Georgia,South,32.46098,-84.98771,1645841.6
46424,SO - 0003399,2017-01-02,Linklinks Ltd,Product 4,Distributor,9,1072.0,9648.0,814.72,PA,Bucks County,Pennsylvania,Northeast,40.10622,-74.94364,2885560.824
46425,SO - 0005388,2017-01-02,CARDINAL Group,Product 18,Export,5,167.5,837.5,105.525,KS,Wyandotte County,Kansas,Midwest,39.11417,-94.62746,2309499.045
46426,SO - 0006164,2017-01-02,SAFEWAY Ltd,Product 12,Distributor,10,3979.8,39798.0,3303.234,FL,Hillsborough County,Florida,South,28.01057,-82.57732,1356976.996
46427,SO - 0007186,2017-01-02,Chatterbri Ltd,Product 14,Distributor,6,2251.2000000000003,13507.2,1508.3040000000003,MA,Hampden County,Massachusetts,Northeast,42.1487,-72.60787,4028698.4090000005
46428,SO - 0007332,2017-01-02,Blogspan Ltd,Product 3,Wholesale,6,5889.3,35335.8,4711.4400000000005,MI,Wayne County,Michigan,Midwest,42.33698,-83.27326,2642352.432
46429,SO - 0007607,2017-01-02,Snaptags Ltd,Product 5,Distributor,11,2860.9,31469.9,1316.0140000000001,IN,Hamilton County,Indiana,Midwest,40.04559,-86.0086,3925424.5420000004
46430,SO - 0008254,2017-01-02,Jabbercube Corp,Product 16,Wholesale,8,1031.8,8254.4,815.122,PA,Bucks County,Pennsylvania,Northeast,40.10622,-74.94364,2062061.144
46431,SO - 0001891,2017-01-02,Skyvu Group,Product 14,Distributor,12,3926.2000000000003,47114.4,2669.8160000000003,CA,Orange County,California,West,33.52253,-117.70755,4028698.4090000005
46432,SO - 0002187,2017-01-02,MEIJER Corp,Product 18,Distributor,11,3979.8,43777.8,1989.9,CA,Sacramento County,California,West,38.58157,-121.4944,2309499.045
46433,SO - 0002601,2017-01-02,Voonyx Group,Product 20,Wholesale,12,6137.2,73646.4,3375.46,CA,Orange County,California,West,33.87224,-117.87034,2067108.1199999999
46434,SO - 0005600,2017-01-02,Cadila Ltd,Product 25,Wholesale,7,971.5,6800.5,505.18,TX,Harrison County/Gregg County,Texas,South,32.51934,-94.76459,5342315.484
46435,SO - 0005771,2017-01-02,Pacific Ltd,Product 2,Wholesale,7,1092.1000000000001,7644.700000000001,589.7340000000002,CA,Orange County,California,West,33.83529,-117.9145,3050087.565
46436,SO - 0006743,2017-01-02,Aromaticos Company,Product 2,Wholesale,5,6231.0,31155.0,4174.77,CA,Santa Barbara County,California,West,34.42083,-119.69819,3050087.565
46437,SO - 0009768,2017-01-02,Eidel Corp,Product 3,Wholesale,5,2653.2000000000003,13266.000000000002,1698.0480000000002,WA,King County/Pierce County,Washington,West,47.30377,-122.21,2642352.432
46438,SO - 0008653,2017-01-02,Mylan Corp,Product 13,Export,5,1078.7,5393.5,841.3860000000001,CA,Santa Barbara County,California,West,34.95303,-120.43572,3720639.645
46439,SO - 000491,2017-01-02,Mydo Corp,Product 15,Wholesale,11,2452.2000000000003,26974.200000000004,1912.7160000000003,FL,Lee County,Florida,South,26.33981,-81.7787,3299478.315
46440,SO - 0002388,2017-01-02,ALK-Abello Ltd,Product 6,Wholesale,8,2686.7000000000003,21493.600000000002,1423.9510000000002,FL,Leon County,Florida,South,30.43826,-84.28073,1672229.416
46441,SO - 0002621,2017-01-02,Golden Corp,Product 6,Distributor,6,978.2,5869.200000000001,665.176,CA,Alameda County,California,West,37.54827,-121.98857,1672229.416
46442,SO - 0002866,2017-01-02,Kaymbo Company,Product 1,Wholesale,6,3939.6,23637.6,2600.136,CT,Fairfield County,Connecticut,Northeast,41.39482,-73.45401,3016489.209
46443,SO - 0003103,2017-01-02,Pfizer Corp,Product 25,Distributor,11,1695.1000000000001,18646.100000000002,966.207,AZ,Maricopa County,Arizona,West,33.37032,-112.58378,5342315.484
46444,SO - 0005390,2017-01-02,Colgate-Pa Group,Product 8,Distributor,10,676.7,6767.0,514.292,NC,Gaston County,North Carolina,South,35.26208,-81.1873,1085037.3290000001
46445,SO - 0006381,2017-01-02,Cogidoo Company,Product 4,Wholesale,7,3102.1,21714.7,1271.8609999999999,OK,Garfield County,Oklahoma,South,36.39559,-97.87839,2885560.824
46446,SO - 0007355,2017-01-02,Thoughtmix Ltd,Product 26,Wholesale,11,3671.6,40387.6,2459.972,GA,Fulton County/Cobb County,Georgia,South,34.03945,-84.35095,5685138.2700000005
46447,SO - 0008619,2017-01-02,Natures Group,Product 2,Wholesale,7,201.0,1407.0,118.58999999999999,CA,San Diego County,California,West,32.71533,-117.15726,3050087.565
46448,SO - 0009103,2017-01-02,Eidel Corp,Product 13,Wholesale,12,1721.9,20662.800000000003,843.731,TX,Caldwell County/Hays County/Guadalupe County,Texas,South,29.8729,-97.93773,3720639.645
46449,SO - 0009761,2017-01-02,Avamba Company,Product 20,Wholesale,5,1232.8,6164.0,875.2879999999999,CA,Kern County,California,West,35.76884,-119.24705,2067108.1199999999
46450,SO - 0009952,2017-01-02,Skyvu Group,Product 25,Distributor,8,261.3,2090.4,154.167,NC,Cumberland County,North Carolina,South,35.05266,-78.87836,5342315.484
46451,SO - 0002901,2017-01-03,Twinte Group,Product 25,Wholesale,9,261.3,2351.7000000000003,198.58800000000002,CA,Santa Clara County,California,West,37.36883,-122.03635,5342315.484
46452,SO - 0003602,2017-01-03,Mydo Corp,Product 6,Wholesale,9,6023.3,54209.700000000004,4758.407,GA,DeKalb County,Georgia,South,33.85844,-84.3402,1672229.416
46453,SO - 0004487,2017-01-03,Fatz Group,Product 7,Wholesale,9,1045.2,9406.800000000001,522.6,IN,Marion County,Indiana,Midwest,39.8716,-86.01156,889737.555
46454,SO - 000189,2017-01-03,Viva Ltd,Product 12,Export,9,3953.0,35577.0,3360.0499999999997,IL,Cook County/Kane County,Illinois,Midwest,42.06521,-88.153,1356976.996
46455,SO - 0001627,2017-01-03,The Ltd,Product 16,Distributor,10,3959.7000000000003,39597.0,3009.3720000000003,CA,Sacramento County,California,West,38.61713,-121.32828,2062061.144
46456,SO - 0003272,2017-01-03,Zava Group,Product 11,Distributor,6,6438.7,38632.2,2575.48,MN,Hennepin County,Minnesota,Midwest,44.9133,-93.50329,1230458.484
46457,SO - 0006032,2017-01-03,Zava Group,Product 15,Distributor,5,777.2,3886.0,349.74,IL,DuPage County,Illinois,Midwest,41.77193,-88.09209,3299478.315
46458,SO - 0008909,2017-01-03,US Ltd,Product 20,Wholesale,5,1956.4,9782.0,1584.6840000000002,NC,Guilford County,North Carolina,South,36.07264,-79.79198,2067108.1199999999
46459,SO - 0010169,2017-01-03,SUPERVALU Ltd,Product 1,Wholesale,11,2666.6,29332.6,1786.622,IN,Monroe County,Indiana,Midwest,39.11904,-86.51979,3016489.209
46460,SO - 0003164,2017-01-03,Deseret Group,Product 20,Wholesale,9,884.4,7959.599999999999,353.76,AL,Mobile County,Alabama,South,30.69436,-88.04305,2067108.1199999999
46461,SO - 0003406,2017-01-03,Zava Group,Product 6,Wholesale,7,6137.2,42960.4,4296.04,FL,Broward County,Florida,South,26.10037,-80.39977,1672229.416
46462,SO - 0005059,2017-01-03,Natures Group,Product 1,Wholesale,8,6090.3,48722.4,2618.829,WA,King County,Washington,West,47.47038,-122.34679,3016489.209
46463,SO - 0008419,2017-01-03,Skyvu Group,Product 17,Wholesale,9,1038.5,9346.5,498.47999999999996,MN,Dakota County,Minnesota,Midwest,44.64969,-93.24272,2119616.824
46464,SO - 0008391,2017-01-03,Zoonoodle Ltd,Product 5,Wholesale,7,3906.1,27342.7,3046.758,PA,Lackawanna County,Pennsylvania,Northeast,41.40897,-75.66241,3925424.5420000004
46465,SO - 0001163,2017-01-03,Wordpedia Ltd,Product 19,Distributor,8,917.9,7343.2,431.41299999999995,MA,Middlesex County,Massachusetts,Northeast,42.41843,-71.10616,1645841.6
46466,SO - 0006750,2017-01-03,NARS Group,Product 20,Wholesale,12,1775.5,21306.0,1083.055,MA,Middlesex County,Massachusetts,Northeast,42.3751,-71.10561,2067108.1199999999
46467,SO - 0007819,2017-01-03,US Ltd,Product 15,Wholesale,10,1112.2,11122.0,912.004,MA,Hampden County,Massachusetts,Northeast,42.10148,-72.58981,3299478.315
46468,SO - 0009969,2017-01-03,Tekfly Group,Product 30,Export,9,3973.1,35757.9,2661.9770000000003,CO,Adams County,Colorado,West,39.80832,-104.93387,1011609.684
46469,SO - 000148,2017-01-03,Realbuzz Ltd,Product 13,Wholesale,10,6452.1,64521.0,5161.68,WI,Dane County,Wisconsin,Midwest,43.07305,-89.40123,3720639.645
46470,SO - 000696,2017-01-03,Remedy Ltd,Product 26,Distributor,11,3906.1,42967.1,1835.867,MI,Wayne County,Michigan,Midwest,42.36837,-83.35271,5685138.2700000005
46471,SO - 0001559,2017-01-03,Jabbercube Corp,Product 21,Wholesale,7,1989.9,13929.300000000001,835.758,MA,Bristol County,Massachusetts,Northeast,41.63622,-70.93421,959899.2180000001
46472,SO - 0003181,2017-01-03,Skidoo Company,Product 3,Wholesale,7,2251.2000000000003,15758.400000000001,1710.9120000000003,CA,Los Angeles County,California,West,34.13973,-118.03534,2642352.432
46473,SO - 0004628,2017-01-03,Kazu Corp,Product 4,Wholesale,10,1192.6000000000001,11926.000000000002,918.3020000000001,IL,McLean County,Illinois,Midwest,40.53839,-88.98528,2885560.824
46474,SO - 0005219,2017-01-03,Oba Company,Product 25,Distributor,11,3999.9,43998.9,3119.922,TX,Randall County/Potter County,Texas,South,35.19988,-101.8302,5342315.484
46475,SO - 0006313,2017-01-03,Sanum-Kehl Group,Product 16,Export,8,1822.4,14579.2,1530.816,CA,San Joaquin County,California,West,37.9577,-121.29078,2062061.144
46476,SO - 0007008,2017-01-03,Fred's Company,Product 19,Distributor,7,234.5,1641.5,93.80000000000001,CA,Los Angeles County,California,West,34.08529,-117.9609,1645841.6
46477,SO - 000692,2017-01-03,ALK-Abello Ltd,Product 6,Export,9,3731.9,33587.1,2276.459,TX,Rockwall County/Kaufman County/Collin County/Denton County/Dallas County,Texas,South,32.79333,-96.76651,1672229.416
46478,SO - 000929,2017-01-03,General Company,Product 15,Export,9,261.3,2351.7000000000003,198.58800000000002,IL,Winnebago County,Illinois,Midwest,42.24868,-89.07452,3299478.315
46479,SO - 0002644,2017-01-03,Twitterbri Ltd,Product 19,Distributor,9,3852.5,34672.5,2504.125,WA,King County/Pierce County,Washington,West,47.30377,-122.21,1645841.6
46480,SO - 0003210,2017-01-03,Yodoo Ltd,Product 17,Wholesale,12,1085.4,13024.800000000001,640.386,IL,Champaign County,Illinois,Midwest,40.11642,-88.24338,2119616.824
46481,SO - 0003737,2017-01-03,NARS Group,Product 25,Distributor,6,2311.5,13869.0,1733.625,CA,San Diego County,California,West,32.67806,-117.09917,5342315.484
46482,SO - 0005480,2017-01-03,Blogspan Ltd,Product 14,Wholesale,5,2686.7000000000003,13433.500000000002,2122.4930000000004,UT,Salt Lake County,Utah,West,40.69161,-112.00105,4028698.4090000005
46483,SO - 0006125,2017-01-03,Zooveo Company,Product 29,Wholesale,11,1815.7,19972.7,726.2800000000001,VA,Fairfax County,Virginia,South,38.84039,-77.42888,594471.5700000001
46484,SO - 0006192,2017-01-03,Skyvu Group,Product 20,Export,7,2458.9,17212.3,1032.738,GA,DeKalb County,Georgia,South,33.85844,-84.3402,2067108.1199999999
46485,SO - 0006469,2017-01-03,Army Group,Product 23,Distributor,5,2237.8,11189.0,939.8760000000001,OH,Greene County/Montgomery County,Ohio,Midwest,39.69599,-84.15044,1135815.7580000001
46486,SO - 0004529,2017-01-04,Valeant Corp,Product 29,Distributor,11,4006.6,44072.6,2844.6859999999997,NE,Hall County,Nebraska,Midwest,40.92501,-98.34201,594471.5700000001
46487,SO - 0005789,2017-01-04,Skajo Ltd,Product 1,Wholesale,7,1902.8,13319.6,1427.1,TX,Hidalgo County,Texas,South,26.1948,-98.18362,3016489.209
46488,SO - 0006334,2017-01-04,Tekfly Group,Product 5,Wholesale,12,1125.6000000000001,13507.2,472.75200000000007,CA,Santa Clara County,California,West,37.36883,-122.03635,3925424.5420000004
46489,SO - 0008860,2017-01-04,Accord Group,Product 4,Distributor,10,5768.7,57687.0,4268.838,FL,Hillsborough County,Florida,South,27.9378,-82.28592,2885560.824
46490,SO - 0003871,2017-01-04,Janyx Group,Product 13,Wholesale,7,790.6,5534.2,434.83000000000004,GA,Peach County/Houston County,Georgia,South,32.5971,-83.65394,3720639.645
46491,SO - 0004981,2017-01-04,Devpoint Group,Product 20,Wholesale,9,1065.3,9587.699999999999,521.997,LA,Orleans Parish,Louisiana,South,29.95465,-90.07507,2067108.1199999999
46492,SO - 0007239,2017-01-04,Dynazzy Company,Product 25,Wholesale,10,3906.1,39061.0,2695.209,IL,Kane County,Illinois,Midwest,41.94151,-88.321,5342315.484
46493,SO - 0008957,2017-01-04,Trunyx Ltd,Product 11,Wholesale,12,958.1,11497.2,440.72600000000006,FL,Miami-Dade County,Florida,South,25.75871,-80.39839,1230458.484
46494,SO - 0004451,2017-01-04,Zoomdog Corp,Product 2,Wholesale,12,6559.3,78711.6,5444.219,TX,Caldwell County/Hays County/Guadalupe County,Texas,South,29.8729,-97.93773,3050087.565
46495,SO - 0004698,2017-01-04,Pfizer Corp,Product 5,Wholesale,8,3953.0,31624.0,1818.38,UT,Utah County,Utah,West,40.2969,-111.69465,3925424.5420000004
46496,SO - 0005566,2017-01-04,Aromaticos Company,Product 18,Distributor,8,174.20000000000002,1393.6000000000001,142.844,GA,Fulton County/Cobb County,Georgia,South,34.03945,-84.35095,2309499.045
46497,SO - 0005773,2017-01-04,Flipbug Ltd,Product 15,Wholesale,12,3939.6,47275.2,2481.948,MI,Oakland County,Michigan,Midwest,42.65837,-83.14993,3299478.315
46498,SO - 0005782,2017-01-04,Tambee Company,Product 9,Export,6,1132.3,6793.799999999999,611.442,IN,Marion County,Indiana,Midwest,39.8716,-86.01156,710415.405
46499,SO - 0006390,2017-01-04,Thoughtmix Ltd,Product 23,Distributor,11,5159.0,56749.0,2321.55,IL,Cook County/Kane County,Illinois,Midwest,42.03964,-88.32171,1135815.7580000001
46500,SO - 0009014,2017-01-04,Skajo Ltd,Product 14,Wholesale,12,2365.1,28381.199999999997,1348.1069999999997,LA,Orleans Parish,Louisiana,South,29.95465,-90.07507,4028698.4090000005
46501,SO - 000992,2017-01-04,Golden Corp,Product 13,Export,7,3912.8,27389.600000000002,2778.088,IN,Allen County,Indiana,Midwest,41.1306,-85.12886,3720639.645
46502,SO - 0004284,2017-01-04,Realbridge Corp,Product 29,Distributor,10,241.20000000000002,2412.0,173.66400000000002,TX,Randall County/Potter County,Texas,South,35.19988,-101.8302,594471.5700000001
46503,SO - 0005424,2017-01-04,Avavee Group,Product 22,Wholesale,7,917.9,6425.3,504.845,IN,Marion County,Indiana,Midwest,39.67674,-86.15616,663601.902
46504,SO - 0009958,2017-01-04,Cadila Ltd,Product 26,Wholesale,8,2358.4,18867.2,1108.448,WA,Whatcom County,Washington,West,48.75955,-122.48822,5685138.2700000005
46505,SO - 0009362,2017-01-04,Gigabox Group,Product 30,Wholesale,8,5406.900000000001,43255.200000000004,4217.3820000000005,IA,Plymouth County/Woodbury County,Iowa,Midwest,42.49567,-96.39053,1011609.684
46506,SO - 000576,2017-01-04,Zooveo Company,Product 15,Wholesale,6,5051.8,30310.800000000003,3435.224,VA,Harrisonburg city,Virginia,South,38.44957,-78.86892,3299478.315
46507,SO - 0001134,2017-01-04,Skajo Ltd,Product 4,Distributor,5,3061.9,15309.5,2449.52,CA,Santa Cruz County,California,West,36.91023,-121.75689,2885560.824
46508,SO - 0002390,2017-01-04,SAFEWAY Ltd,Product 26,Wholesale,8,1159.1000000000001,9272.800000000001,857.734,CA,Placer County,California,West,38.75212,-121.28801,5685138.2700000005
46509,SO - 0004233,2017-01-04,Skippad Ltd,Product 19,Wholesale,11,3926.2000000000003,43188.200000000004,2630.5540000000005,WA,Yakima County,Washington,West,46.60207,-120.5059,1645841.6
46510,SO - 0005328,2017-01-04,Mydeo Ltd,Product 25,Wholesale,12,1072.0,12864.0,868.32,NJ,Monmouth County,New Jersey,Northeast,40.18205,-74.19852,5342315.484
46511,SO - 0006550,2017-01-04,Pixoboo Corp,Product 15,Wholesale,5,2365.1,11825.5,1702.8719999999998,MA,Essex County,Massachusetts,Northeast,42.46676,-70.94949,3299478.315
46512,SO - 0007051,2017-01-04,BTA Corp,Product 2,Wholesale,10,1132.3,11323.0,566.15,NJ,Passaic County,New Jersey,Northeast,40.85677,-74.12848,3050087.565
46513,SO - 0009885,2017-01-04,Arbor Company,Product 2,Distributor,6,1246.2,7477.200000000001,710.334,WI,Brown County,Wisconsin,Midwest,44.51916,-88.01983,3050087.565
46514,SO - 0010221,2017-01-04,Voolia Ltd,Product 16,Distributor,11,2432.1,26753.1,1605.186,CA,Los Angeles County,California,West,33.96168,-118.35313,2062061.144
46515,SO - 000628,2017-01-04,Mydo Corp,Product 5,Distributor,9,241.20000000000002,2170.8,180.9,FL,Lee County,Florida,South,26.56285,-81.94953,3925424.5420000004
46516,SO - 0003064,2017-01-04,NARS Group,Product 1,Distributor,6,1876.0,11256.0,1106.84,PA,Lehigh County,Pennsylvania,Northeast,40.60843,-75.49018,3016489.209
46517,SO - 0003600,2017-01-04,SAFEWAY Ltd,Product 5,Wholesale,5,207.70000000000002,1038.5,145.39000000000001,UT,Utah County,Utah,West,40.2969,-111.69465,3925424.5420000004
46518,SO - 0004193,2017-01-04,Alembic Ltd,Product 1,Export,6,2941.3,17647.800000000003,1676.541,MN,Dakota County,Minnesota,Midwest,44.73191,-93.21772,3016489.209
46519,SO - 0004880,2017-01-04,Browsebug Company,Product 16,Distributor,7,2318.2000000000003,16227.400000000001,1460.4660000000001,WA,King County,Washington,West,47.61038,-122.20068,2062061.144
46520,SO - 0007400,2017-01-04,Vimbo Company,Product 25,Wholesale,6,3899.4,23396.4,2612.5980000000004,IL,Cook County,Illinois,Midwest,41.59859,-87.85041,5342315.484
46521,SO - 0008082,2017-01-04,Golden Corp,Product 25,Distributor,11,1835.8,20193.8,1303.418,IA,Johnson County,Iowa,Midwest,41.66113,-91.53017,5342315.484
46522,SO - 0001013,2017-01-05,Kare Corp,Product 26,Wholesale,6,1065.3,6391.799999999999,852.24,MN,Hennepin County,Minnesota,Midwest,44.85469,-93.47079,5685138.2700000005
46523,SO - 0002835,2017-01-05,Topiczoom Corp,Product 1,Distributor,7,897.8000000000001,6284.6,430.944,CA,Sacramento County,California,West,38.58157,-121.4944,3016489.209
46524,SO - 0003354,2017-01-05,Kazu Corp,Product 18,Distributor,12,5467.2,65606.4,3772.3679999999995,GA,Fulton County,Georgia,South,34.07538,-84.29409,2309499.045
46525,SO - 0004537,2017-01-05,Fivebridge Ltd,Product 2,Wholesale,9,1902.8,17125.2,818.204,CT,New Haven County,Connecticut,Northeast,41.310810000000004,-72.92495,3050087.565
46526,SO - 0006070,2017-01-05,Aibox Company,Product 13,Distributor,9,3852.5,34672.5,1541.0,GA,Dougherty County,Georgia,South,31.57851,-84.15574,3720639.645
46527,SO - 0006259,2017-01-05,Flipbug Ltd,Product 29,Distributor,5,1058.6000000000001,5293.000000000001,709.2620000000002,CA,Orange County,California,West,33.64113,-117.91867,594471.5700000001
46528,SO - 0006384,2017-01-05,Aromaticos Company,Product 20,Distributor,7,1266.3,8864.1,810.432,NC,Onslow County,North Carolina,South,34.75405,-77.43024,2067108.1199999999
46529,SO - 0009343,2017-01-05,GOOD Ltd,Product 22,Export,6,3457.2000000000003,20743.2,2938.6200000000003,MD,Montgomery County,Maryland,South,39.084,-77.15276,663601.902
46530,SO - 0008132,2017-01-05,Dazzlesphe Corp,Product 6,Distributor,12,911.2,10934.400000000001,537.608,TX,Collin County/Dallas County,Texas,South,32.97229,-96.70807,1672229.416
46531,SO - 0009933,2017-01-05,Kazu Corp,Product 10,Wholesale,11,3497.4,38471.4,2937.816,CA,Merced County,California,West,37.30216,-120.48297,864331.624
46532,SO - 0010352,2017-01-05,Kazu Corp,Product 3,Wholesale,6,1855.9,11135.400000000001,1429.0430000000001,IN,Vigo County,Indiana,Midwest,39.4667,-87.41391,2642352.432
46533,SO - 0008261,2017-01-05,Talane Group,Product 15,Wholesale,5,227.8,1139.0,148.07000000000002,CO,Douglas County,Colorado,West,39.37221,-104.85609,3299478.315
46534,SO - 0002063,2017-01-05,SUPERVALU Ltd,Product 2,Distributor,7,1125.6000000000001,7879.200000000001,855.4560000000001,MO,St. Charles County,Missouri,Midwest,38.81061,-90.69985,3050087.565
46535,SO - 0003523,2017-01-05,Realcube Company,Product 2,Export,5,871.0,4355.0,531.31,CA,San Bernardino County,California,West,34.05557,-117.18254,3050087.565
46536,SO - 0009505,2017-01-05,Zoomzone Corp,Product 7,Wholesale,8,2385.2000000000003,19081.600000000002,1025.6360000000002,AL,Mobile County,Alabama,South,30.69436,-88.04305,889737.555
46537,SO - 0001757,2017-01-05,Twitterbri Ltd,Product 17,Export,9,1098.8,9889.199999999999,747.184,CA,San Diego County,California,West,32.83838,-116.97392,2119616.824
46538,SO - 0004837,2017-01-05,Ascend Ltd,Product 5,Wholesale,5,1072.0,5360.0,568.1600000000001,NC,Guilford County,North Carolina,South,36.07264,-79.79198,3925424.5420000004
46539,SO - 0007857,2017-01-05,Zoonoodle Ltd,Product 2,Export,7,2257.9,15805.300000000001,1106.371,MI,Oakland County,Michigan,Midwest,42.63892,-83.29105,3050087.565
46540,SO - 0010065,2017-01-05,Pfizer Corp,Product 14,Wholesale,10,1078.7,10787.0,474.62800000000004,IL,McLean County,Illinois,Midwest,40.53839,-88.98528,4028698.4090000005
46541,SO - 0009211,2017-01-05,Buzzshare Company,Product 25,Distributor,11,5038.400000000001,55422.40000000001,3778.8,TX,Harris County,Texas,South,29.69106,-95.2091,5342315.484
46542,SO - 0003315,2017-01-05,Rhynoodle Ltd,Product 19,Distributor,7,2740.3,19182.100000000002,1561.971,NY,Erie County,New York,Northeast,43.01164,-78.75715,1645841.6
46543,SO - 0008683,2017-01-05,Accudial Company,Product 30,Export,5,167.5,837.5,85.425,WI,Eau Claire County/Chippewa County,Wisconsin,Midwest,44.81966,-91.49488,1011609.684
46544,SO - 0009449,2017-01-05,Skidoo Company,Product 30,Export,5,3973.1,19865.5,2066.012,NY,Suffolk County,New York,Northeast,40.64092,-73.31669,1011609.684
46545,SO - 0010471,2017-01-05,Organon Corp,Product 20,Export,5,1882.7,9413.5,1016.6580000000001,TX,Harris County,Texas,South,29.69106,-95.2091,2067108.1199999999
46546,SO - 0010375,2017-01-05,Jayo Company,Product 25,Distributor,6,2010.0,12060.0,964.8,FL,Miami-Dade County,Florida,South,25.77427,-80.19366,5342315.484
46547,SO - 0009020,2017-01-05,Avavee Group,Product 1,Wholesale,5,221.1,1105.5,145.92600000000002,NY,Monroe County,New York,Northeast,43.2134,-77.57972,3016489.209
46548,SO - 0009070,2017-01-05,Liberty Group,Product 26,Wholesale,12,1051.9,12622.800000000001,599.583,CA,Sacramento County,California,West,38.58907,-121.30273,5685138.2700000005
46549,SO - 000643,2017-01-05,Flipbug Ltd,Product 5,Distributor,7,1005.0,7035.0,462.3,NJ,Passaic County,New Jersey,Northeast,40.94585,-74.24508,3925424.5420000004
46550,SO - 0001536,2017-01-05,Eayo Company,Product 18,Wholesale,8,6472.2,51777.6,2977.212,TX,Lubbock County,Texas,South,33.57786,-101.85517,2309499.045
46551,SO - 0002360,2017-01-05,Mylan Corp,Product 25,Wholesale,7,1118.9,7832.300000000001,906.3090000000001,CO,Weld County,Colorado,West,40.42331,-104.70913,5342315.484
46552,SO - 0002452,2017-01-05,Natures Group,Product 13,Wholesale,5,1132.3,5661.5,871.871,CT,New Haven County,Connecticut,Northeast,41.310810000000004,-72.92495,3720639.645
46553,SO - 0003254,2017-01-05,Aldi Ltd,Product 13,Wholesale,7,777.2,5440.400000000001,528.4960000000001,WI,Outagamie County/Calumet County/Winnebago County,Wisconsin,Midwest,44.27795,-88.38826,3720639.645
46554,SO - 0004421,2017-01-05,Avavee Group,Product 25,Distributor,7,227.8,1594.6000000000001,113.9,MI,Calhoun County,Michigan,Midwest,42.32115,-85.17971,5342315.484
46555,SO - 000355,2017-01-05,Snaptags Ltd,Product 18,Distributor,11,1092.1000000000001,12013.100000000002,622.4970000000001,UT,Salt Lake County,Utah,West,40.60967,-111.9391,2309499.045
46556,SO - 0004277,2017-01-05,Oba Company,Product 14,Wholesale,11,6405.2,70457.2,2882.34,CA,Los Angeles County,California,West,34.13612,-117.86534,4028698.4090000005
46557,SO - 0004887,2017-01-05,Alembic Ltd,Product 13,Distributor,6,2539.3,15235.800000000001,1015.7200000000001,TX,Cameron County,Texas,South,26.19063,-97.6961,3720639.645
46558,SO - 0005347,2017-01-05,Wordpedia Ltd,Product 20,Wholesale,8,3852.5,30820.0,3236.1,TX,Rockwall County/Dallas County,Texas,South,32.91592,-96.54867,2067108.1199999999
46559,SO - 0010537,2017-01-05,Colgate-Pa Group,Product 15,Distributor,7,991.6,6941.2,485.884,CA,Butte County,California,West,39.72849,-121.83748,3299478.315
46560,SO - 0010456,2017-01-05,Snaptags Ltd,Product 1,Wholesale,5,4020.0,20100.0,3095.4,MS,Rankin County/Hinds County/Madison County,Mississippi,South,32.31583,-90.21282,3016489.209
46561,SO - 000577,2017-01-06,Skyvu Group,Product 17,Export,5,1011.7,5058.5,667.7220000000001,NY,Monroe County,New York,Northeast,43.15478,-77.61556,2119616.824
46562,SO - 0003740,2017-01-06,Jayo Company,Product 16,Export,8,3859.2000000000003,30873.600000000002,2006.784,VA,Lynchburg city,Virginia,South,37.41375,-79.14225,2062061.144
46563,SO - 0005137,2017-01-06,Rochester Group,Product 14,Wholesale,5,1058.6000000000001,5293.000000000001,698.6760000000002,CO,Arapahoe County,Colorado,West,39.57916,-104.87692,4028698.4090000005
46564,SO - 0006007,2017-01-06,Linkbuzz Ltd,Product 17,Wholesale,9,1118.9,10070.1,704.907,MA,Hampden County,Massachusetts,Northeast,42.10148,-72.58981,2119616.824
46565,SO - 0007827,2017-01-06,Nexus Group,Product 21,Wholesale,10,167.5,1675.0,107.2,WI,Milwaukee County,Wisconsin,Midwest,43.01668,-88.00703,959899.2180000001
46566,SO - 0007952,2017-01-06,Brainspher Ltd,Product 25,Distributor,6,180.9,1085.4,92.259,MI,Oakland County,Michigan,Midwest,42.48531,-83.37716,5342315.484
46567,SO - 0009873,2017-01-06,Pacific Ltd,Product 12,Wholesale,7,2646.5,18525.5,1482.0400000000002,MA,Norfolk County,Massachusetts,Northeast,42.25288,-71.00227,1356976.996
46568,SO - 0008943,2017-01-06,Nexus Group,Product 15,Distributor,9,227.8,2050.2000000000003,184.51800000000003,CA,San Diego County,California,West,33.03699,-117.29198,3299478.315
46569,SO - 0010655,2017-01-06,Aimbo Corp,Product 3,Distributor,7,2351.7000000000003,16461.9,1787.2920000000001,CA,San Mateo County,California,West,37.48522,-122.23635,2642352.432
46570,SO - 0009407,2017-01-06,Topiczoom Corp,Product 16,Distributor,9,3356.7000000000003,30210.300000000003,1779.0510000000002,CA,Sacramento County,California,West,38.58907,-121.30273,2062061.144
46571,SO - 000781,2017-01-06,Podcat Corp,Product 14,Wholesale,11,1145.7,12602.7,744.705,TX,Rockwall County/Collin County/Dallas County,Texas,South,32.90983,-96.63033,4028698.4090000005
46572,SO - 0001723,2017-01-06,Fivechat Company,Product 1,Wholesale,11,6398.5,70383.5,3647.1449999999995,CT,Hartford County,Connecticut,Northeast,41.77524,-72.52443,3016489.209
46573,SO - 0005687,2017-01-06,Blogtags Ltd,Product 17,Wholesale,7,2398.6,16790.2,1439.1599999999999,IL,DuPage County,Illinois,Midwest,41.85857,-88.08948,2119616.824
46574,SO - 0006399,2017-01-06,Geiss Company,Product 30,Wholesale,6,1333.3,7999.799999999999,1026.641,CO,Larimer County,Colorado,West,40.58526,-105.08442,1011609.684
46575,SO - 0009076,2017-01-06,Blogspan Ltd,Product 17,Distributor,12,5822.3,69867.6,4599.617,FL,Volusia County,Florida,South,29.21081,-81.02283,2119616.824
46576,SO - 0009925,2017-01-06,Flipbug Ltd,Product 25,Distributor,9,5380.1,48420.9,3604.6670000000004,IL,McLean County,Illinois,Midwest,40.4842,-88.99369,5342315.484
46577,SO - 000678,2017-01-06,Realbuzz Ltd,Product 2,Wholesale,11,5567.7,61244.7,4565.513999999999,CA,Alameda County,California,West,37.72493,-122.15608,3050087.565
46578,SO - 0001563,2017-01-06,Twimbo Company,Product 18,Export,8,2291.4,18331.2,1810.2060000000001,NM,Bernalillo County,New Mexico,West,35.08449,-106.65114,2309499.045
46579,SO - 0002896,2017-01-06,Neutrogena Ltd,Product 13,Wholesale,11,2264.6,24910.6,1743.742,TX,Rockwall County/Kaufman County/Collin County/Denton County/Dallas County,Texas,South,32.79333,-96.76651,3720639.645
46580,SO - 0001098,2017-01-06,Golden Corp,Product 30,Wholesale,11,1675.0,18425.0,1155.75,NY,Broome County,New York,Northeast,42.12662,-76.03324,1011609.684
46581,SO - 0005409,2017-01-06,Gabvine Ltd,Product 14,Export,6,1018.4,6110.4,723.064,TX,Collin County/Dallas County,Texas,South,32.97229,-96.70807,4028698.4090000005
46582,SO - 0005791,2017-01-06,Zoonder Group,Product 28,Distributor,5,3162.4,15812.0,1865.816,CA,San Diego County,California,West,32.71533,-117.15726,1003867.767
46583,SO - 0006160,2017-01-06,Neutrogena Ltd,Product 13,Export,9,1092.1000000000001,9828.900000000001,688.0230000000001,NY,Monroe County,New York,Northeast,43.15478,-77.61556,3720639.645
46584,SO - 0006230,2017-01-06,CLINIQUE Ltd,Product 25,Wholesale,11,2425.4,26679.4,1770.542,MD,Howard County,Maryland,South,39.24038,-76.83942,5342315.484
46585,SO - 0006930,2017-01-06,Podcat Corp,Product 25,Distributor,7,2592.9,18150.3,1089.018,IL,Cook County,Illinois,Midwest,42.08836,-87.98063,5342315.484
46586,SO - 0009458,2017-01-06,Zava Group,Product 14,Export,8,1809.0,14472.0,741.6899999999999,IL,Cook County,Illinois,Midwest,41.84454,-87.75929,4028698.4090000005
46587,SO - 000194,2017-01-06,Z.H.T. Group,Product 16,Wholesale,5,5031.7,25158.5,4025.36,IA,Warren County/Polk County,Iowa,Midwest,41.57259,-93.61024,2062061.144
46588,SO - 000777,2017-01-06,Shuffledri Group,Product 26,Wholesale,10,984.9,9849.0,689.43,CA,Orange County,California,West,33.77391,-117.94145,5685138.2700000005
46589,SO - 0002473,2017-01-06,Pfizer Corp,Product 2,Distributor,8,2398.6,19188.8,1918.88,AL,Limestone County/Morgan County,Alabama,South,34.57332,-86.99214,3050087.565
46590,SO - 0003643,2017-01-06,Valeant Corp,Product 26,Wholesale,5,1051.9,5259.5,725.811,CT,Fairfield County,Connecticut,Northeast,41.05343,-73.53873,5685138.2700000005
46591,SO - 0005432,2017-01-06,Rochester Group,Product 20,Distributor,6,5380.1,32280.600000000002,2205.841,UT,Salt Lake County,Utah,West,40.56217,-111.92966,2067108.1199999999
46592,SO - 0008970,2017-01-06,Jayo Company,Product 1,Wholesale,12,670.0,8040.0,569.5,CA,Yolo County,California,West,38.58046,-121.53023,3016489.209
46593,SO - 000296,2017-01-06,Jabbercube Corp,Product 26,Wholesale,11,1072.0,11792.0,900.48,IL,Cook County,Illinois,Midwest,41.59859,-87.85041,5685138.2700000005
46594,SO - 0001226,2017-01-06,Quimm Company,Product 18,Wholesale,7,2505.8,17540.600000000002,2079.814,NY,Rockland County,New York,Northeast,41.14077,-74.10498,2309499.045
46595,SO - 0003570,2017-01-06,Nlounge Ltd,Product 25,Wholesale,5,1072.0,5360.0,686.08,CT,Hartford County,Connecticut,Northeast,41.77524,-72.52443,5342315.484
46596,SO - 0005166,2017-01-06,Rooxo Company,Product 6,Wholesale,7,1909.5,13366.5,954.75,CA,Los Angeles County,California,West,33.88835,-118.30896,1672229.416
46597,SO - 0006422,2017-01-06,Nexus Group,Product 13,Distributor,10,2646.5,26465.0,1879.0149999999999,MD,Howard County,Maryland,South,39.24038,-76.83942,3720639.645
46598,SO - 0009392,2017-01-06,Amerisourc Corp,Product 18,Distributor,11,3946.3,43409.3,1657.446,GA,Cobb County,Georgia,South,33.88399,-84.51438,2309499.045
46599,SO - 0008912,2017-01-06,Bluezoom Group,Product 14,Distributor,8,3986.5,31892.0,1913.52,NV,Clark County,Nevada,West,36.09719,-115.14666,4028698.4090000005
46600,SO - 0002849,2017-01-07,WOONSOCKET Corp,Product 20,Wholesale,5,2646.5,13232.5,1085.0649999999998,CA,Santa Clara County,California,West,37.00578,-121.56828,2067108.1199999999
46601,SO - 0005826,2017-01-07,Neutrogena Ltd,Product 28,Wholesale,10,1112.2,11122.0,745.1740000000001,MD,Howard County,Maryland,South,39.24038,-76.83942,1003867.767
46602,SO - 0010652,2017-01-07,US Ltd,Product 28,Wholesale,11,254.6,2800.6,157.852,MI,Kent County,Michigan,Midwest,42.86947,-85.64475,1003867.767
46603,SO - 0010098,2017-01-07,Kaymbo Company,Product 26,Distributor,9,1118.9,10070.1,604.2060000000001,MI,Oakland County,Michigan,Midwest,42.65837,-83.14993,5685138.2700000005
46604,SO - 0009603,2017-01-07,Army Group,Product 23,Distributor,5,2237.8,11189.0,939.8760000000001,AZ,Maricopa County,Arizona,West,33.63059,-112.33322,1135815.7580000001
46605,SO - 0001440,2017-01-07,NCS Group,Product 20,Wholesale,12,1882.7,22592.4,960.177,FL,Pinellas County,Florida,South,27.8428,-82.69954,2067108.1199999999
46606,SO - 0004246,2017-01-07,Meejo Corp,Product 25,Distributor,6,1943.0,11658.0,1029.79,TN,Hamilton County,Tennessee,South,35.04563,-85.30968,5342315.484
46607,SO - 0005295,2017-01-07,Skippad Ltd,Product 27,Export,6,3477.3,20863.800000000003,2677.521,IN,Hamilton County,Indiana,Midwest,40.04559,-86.0086,964940.2310000001
46608,SO - 0009098,2017-01-07,Skyvu Group,Product 26,Wholesale,8,5688.3,45506.4,2673.5009999999997,MI,Oakland County,Michigan,Midwest,42.48059,-83.47549,5685138.2700000005
46609,SO - 000175,2017-01-07,Wordware Company,Product 6,Wholesale,11,2224.4,24468.4,1579.324,CA,Los Angeles County,California,West,33.96816,-118.24467,1672229.416
46610,SO - 000237,2017-01-07,Aimbo Corp,Product 13,Wholesale,10,1721.9,17219.0,1084.797,IN,Delaware County,Indiana,Midwest,40.19153,-85.38601,3720639.645
46611,SO - 000781,2017-01-07,Podcat Corp,Product 14,Wholesale,11,1145.7,12602.7,744.705,CA,Santa Cruz County,California,West,36.97412,-122.0308,4028698.4090000005
46612,SO - 000821,2017-01-07,Gigabox Group,Product 1,Distributor,9,247.9,2231.1,151.219,CA,San Mateo County,California,West,37.70583,-122.46194,3016489.209
46613,SO - 0001679,2017-01-07,SUPERVALU Ltd,Product 19,Export,11,1829.1000000000001,20120.100000000002,859.677,FL,Broward County,Florida,South,26.24453,-80.20644,1645841.6
46614,SO - 0001852,2017-01-07,Accudial Company,Product 4,Distributor,6,1902.8,11416.8,1255.848,CA,Orange County,California,West,33.931960000000004,-117.94617,2885560.824
46615,SO - 0002855,2017-01-07,Deseret Group,Product 26,Export,11,5165.7,56822.7,2996.1059999999998,MD,Montgomery County,Maryland,South,38.99067,-77.02609,5685138.2700000005
46616,SO - 0004033,2017-01-07,NARS Group,Product 11,Wholesale,9,1105.5,9949.5,652.245,CT,Fairfield County,Connecticut,Northeast,41.05343,-73.53873,1230458.484
46617,SO - 0004520,2017-01-07,Oba Company,Product 1,Distributor,7,3892.7000000000003,27248.9,3230.9410000000003,TX,Brazos County,Texas,South,30.67436,-96.36996,3016489.209
46618,SO - 0007118,2017-01-07,General Company,Product 28,Wholesale,7,1159.1000000000001,8113.700000000001,660.687,CT,Hartford County,Connecticut,Northeast,41.68158,-72.94075,1003867.767
46619,SO - 0009698,2017-01-07,Snaptags Ltd,Product 20,Wholesale,7,2626.4,18384.8,1339.4640000000002,AL,Limestone County/Madison County,Alabama,South,34.69901,-86.67298,2067108.1199999999
46620,SO - 0010603,2017-01-07,Mita Corp,Product 2,Export,11,2425.4,26679.4,1600.7640000000001,NY,Monroe County,New York,Northeast,43.20981,-77.57206,3050087.565
46621,SO - 0008636,2017-01-07,Blogtags Ltd,Product 1,Wholesale,5,911.2,4556.0,455.6,ID,Ada County,Idaho,West,43.61211,-116.39151,3016489.209
46622,SO - 0008427,2017-01-07,Liberty Group,Product 3,Wholesale,10,1125.6000000000001,11256.000000000002,540.288,CA,San Diego County,California,West,32.64,-117.08417,2642352.432
46623,SO - 0010587,2017-01-07,Mydeo Ltd,Product 13,Export,12,730.3000000000001,8763.6,452.78600000000006,NY,Suffolk County,New York,Northeast,40.78121,-73.24623,3720639.645
46624,SO - 0008371,2017-01-07,Brightdog Corp,Product 3,Wholesale,7,261.3,1829.1000000000001,107.133,FL,Orange County,Florida,South,28.5641,-81.2114,2642352.432
46625,SO - 000382,2017-01-07,Mydo Corp,Product 15,Distributor,6,3959.7000000000003,23758.2,2573.8050000000003,TX,Bell County,Texas,South,31.11712,-97.7278,3299478.315
46626,SO - 0002398,2017-01-07,Zooveo Company,Product 30,Wholesale,12,1996.6000000000001,23959.2,1637.212,IN,Marion County,Indiana,Midwest,39.87571,-86.26625,1011609.684
46627,SO - 0003694,2017-01-07,Arbor Company,Product 25,Export,8,1098.8,8790.4,791.136,NY,Kings County,New York,Northeast,40.62472,-73.95222,5342315.484
46628,SO - 0004628,2017-01-07,Kazu Corp,Product 4,Wholesale,10,1192.6000000000001,11926.000000000002,918.3020000000001,IN,St. Joseph County,Indiana,Midwest,41.68338,-86.25001,2885560.824
46629,SO - 000771,2017-01-07,Ascend Ltd,Product 12,Distributor,5,978.2,4891.0,489.1,NY,Suffolk County,New York,Northeast,40.78121,-73.24623,1356976.996
46630,SO - 0002527,2017-01-07,Ascend Ltd,Product 5,Wholesale,5,1145.7,5728.5,905.1030000000001,MN,Hennepin County,Minnesota,Midwest,44.85469,-93.47079,3925424.5420000004
46631,SO - 0004892,2017-01-07,Liberty Group,Product 9,Export,12,3932.9,47194.8,1691.147,NJ,Ocean County,New Jersey,Northeast,40.07706,-74.20037,710415.405
46632,SO - 0004896,2017-01-07,MEIJER Corp,Product 9,Export,12,844.2,10130.400000000001,438.98400000000004,VA,Newport News city,Virginia,South,36.97876,-76.428,710415.405
46633,SO - 0008019,2017-01-07,Gabvine Ltd,Product 5,Wholesale,12,6097.0,73164.0,3353.3500000000004,NJ,Hudson County,New Jersey,Northeast,40.72816,-74.07764,3925424.5420000004
46634,SO - 0009962,2017-01-07,Kaymbo Company,Product 1,Wholesale,6,3819.0,22914.0,2253.21,CA,Orange County,California,West,33.60002,-117.672,3016489.209
46635,SO - 0008192,2017-01-07,Walgreen Corp,Product 5,Wholesale,8,1031.8,8254.4,825.44,DE,New Castle County,Delaware,South,39.74595,-75.54659,3925424.5420000004
46636,SO - 0002899,2017-01-07,Valeant Corp,Product 6,Wholesale,11,4020.0,44220.0,2814.0,CA,Monterey County,California,West,36.67774,-121.6555,1672229.416
46637,SO - 0004572,2017-01-07,Avamba Company,Product 26,Wholesale,8,2385.2000000000003,19081.600000000002,1526.5280000000002,IL,McHenry County,Illinois,Midwest,42.19807,-88.27594,5685138.2700000005
46638,SO - 0005901,2017-01-07,Ascend Ltd,Product 14,Wholesale,7,3021.7000000000003,21151.9,1843.237,CO,Jefferson County,Colorado,West,39.70471,-105.08137,4028698.4090000005
46639,SO - 0006476,2017-01-07,Terumo Corp,Product 18,Export,11,2834.1,31175.1,1303.686,MO,St. Louis city,Missouri,Midwest,38.62727,-90.19789,2309499.045
46640,SO - 0010503,2017-01-07,Safecor Corp,Product 16,Wholesale,8,5272.900000000001,42183.200000000004,2372.8050000000003,CT,Hartford County,Connecticut,Northeast,41.68158,-72.94075,2062061.144
46641,SO - 0010673,2017-01-07,Bluezoom Group,Product 2,Distributor,11,1112.2,12234.2,500.49,TX,Kaufman County/Dallas County,Texas,South,32.76288,-96.58877,3050087.565
46642,SO - 0001539,2017-01-08,Thoughtmix Ltd,Product 2,Distributor,8,6097.0,48776.0,3048.5,NY,Westchester County,New York,Northeast,41.02928,-73.84285,3050087.565
46643,SO - 0004606,2017-01-08,Devpoint Group,Product 21,Export,9,6304.7,56742.299999999996,4161.102,CA,Orange County,California,West,33.88863,-117.81311,959899.2180000001
46644,SO - 0004879,2017-01-08,Terumo Corp,Product 15,Wholesale,10,2257.9,22579.0,1151.529,IL,Sangamon County,Illinois,Midwest,39.80172,-89.64371,3299478.315
46645,SO - 0005571,2017-01-08,Chatterbri Ltd,Product 26,Wholesale,9,1112.2,10009.800000000001,556.1,NJ,Camden County,New Jersey,Northeast,39.79219,-75.03606,5685138.2700000005
46646,SO - 0008887,2017-01-08,Zoomdog Corp,Product 25,Wholesale,5,5735.2,28676.0,3670.528,GA,Richmond County,Georgia,South,33.36149,-82.075,5342315.484
46647,SO - 0009622,2017-01-08,Rochester Group,Product 24,Export,7,2304.8,16133.600000000002,1682.5040000000001,NJ,Mercer County,New Jersey,Northeast,40.21705,-74.74294,756557.97
46648,SO - 000779,2017-01-08,Yodoo Ltd,Product 5,Export,8,1748.7,13989.6,944.2980000000001,CT,Hartford County,Connecticut,Northeast,41.66121,-72.77954,3925424.5420000004
46649,SO - 000889,2017-01-08,Browsetype Corp,Product 25,Wholesale,10,3865.9,38659.0,1739.655,NJ,Ocean County,New Jersey,Northeast,39.95373,-74.19792,5342315.484
46650,SO - 0001475,2017-01-08,US Ltd,Product 6,Wholesale,8,1306.5,10452.0,940.68,CT,New Haven County,Connecticut,Northeast,41.22509,-73.06111,1672229.416
46651,SO - 0002994,2017-01-08,H Ltd,Product 27,Distributor,9,1132.3,10190.699999999999,735.995,GA,Fulton County,Georgia,South,33.92427,-84.37854,964940.2310000001
46652,SO - 0003601,2017-01-08,Pfizer Corp,Product 14,Distributor,7,1038.5,7269.5,872.3399999999999,IN,Monroe County,Indiana,Midwest,39.16533,-86.52639,4028698.4090000005
46653,SO - 0005106,2017-01-08,Eidel Corp,Product 26,Export,10,2680.0,26800.0,1795.6000000000001,OR,Washington County,Oregon,West,45.52289,-122.98983,5685138.2700000005
46654,SO - 0006169,2017-01-08,Avavee Group,Product 16,Wholesale,12,837.5,10050.0,628.125,VA,Richmond city,Virginia,South,37.55376,-77.46026,2062061.144
46655,SO - 0006913,2017-01-08,Buzzshare Company,Product 28,Distributor,11,1869.3,20562.3,1271.124,IN,Tippecanoe County,Indiana,Midwest,40.42871,-86.85277,1003867.767
46656,SO - 0007137,2017-01-08,Twimbo Company,Product 15,Wholesale,7,1782.2,12475.4,1497.048,NY,Erie County,New York,Northeast,42.88645,-78.87837,3299478.315
46657,SO - 0009401,2017-01-08,Shuffledri Group,Product 8,Wholesale,6,3705.1,22230.6,2260.111,IL,McLean County,Illinois,Midwest,40.4842,-88.99369,1085037.3290000001
46658,SO - 0010259,2017-01-08,Rochester Group,Product 28,Export,6,6224.3,37345.8,3921.309,FL,Sarasota County,Florida,South,27.33643,-82.53065,1003867.767
46659,SO - 000191,2017-01-08,Blogtags Ltd,Product 14,Distributor,10,3430.4,34304.0,1989.6319999999998,CA,Stanislaus County,California,West,37.49466,-120.84659,4028698.4090000005
46660,SO - 0001259,2017-01-08,Unit Ltd,Product 19,Distributor,8,3825.7000000000003,30605.600000000002,2601.4760000000006,CA,Yolo County,California,West,38.67852,-121.7733,1645841.6
46661,SO - 0002319,2017-01-08,Zoovu Corp,Product 30,Wholesale,6,850.9,5105.4,646.684,CT,Fairfield County,Connecticut,Northeast,41.18454,-73.13317,1011609.684
46662,SO - 0002862,2017-01-08,Neutrogena Ltd,Product 3,Distributor,11,1058.6000000000001,11644.600000000002,645.7460000000001,AZ,Pima County,Arizona,West,32.32341,-110.9951,2642352.432
46663,SO - 0003410,2017-01-08,Chatterpoi Corp,Product 14,Export,11,2358.4,25942.4,1532.96,IN,Hamilton County,Indiana,Midwest,40.04559,-86.0086,4028698.4090000005
46664,SO - 0004552,2017-01-08,Zoomdog Corp,Product 14,Wholesale,6,1742.0,10452.0,923.26,MA,Suffolk County,Massachusetts,Northeast,42.40843,-71.01199,4028698.4090000005
46665,SO - 0008000,2017-01-08,Zava Group,Product 1,Distributor,11,2546.0,28006.0,1731.2800000000002,OR,Washington County,Oregon,West,45.43123,-122.77149,3016489.209
46666,SO - 0008876,2017-01-08,Ascend Ltd,Product 25,Wholesale,6,1996.6000000000001,11979.6,1217.9260000000002,TX,Collin County/Denton County,Texas,South,33.05077,-96.74794,5342315.484
46667,SO - 0009809,2017-01-08,Flipstorm Group,Product 25,Distributor,5,1098.8,5494.0,505.448,IL,Will County,Illinois,Midwest,41.59381,-88.19968,5342315.484
46668,SO - 0001169,2017-01-08,Chatterpoi Corp,Product 26,Export,10,2546.0,25460.0,1782.1999999999998,CA,San Diego County,California,West,33.11921,-117.08642,5685138.2700000005
46669,SO - 0001887,2017-01-08,General Company,Product 26,Distributor,9,1775.5,15979.5,1349.38,IL,McHenry County,Illinois,Midwest,42.19807,-88.27594,5685138.2700000005
46670,SO - 0002137,2017-01-08,Tekfly Group,Product 12,Distributor,12,2492.4,29908.800000000003,1395.7440000000001,CA,Ventura County,California,West,34.21639,-119.0376,1356976.996
46671,SO - 0003305,2017-01-08,Bluezoom Group,Product 2,Wholesale,6,2572.8,15436.800000000001,1698.0480000000002,NY,Westchester County,New York,Northeast,40.9126,-73.83708,3050087.565
46672,SO - 0004920,2017-01-08,Golden Corp,Product 18,Wholesale,6,3993.2000000000003,23959.2,3154.628,CT,Hartford County,Connecticut,Northeast,41.67176,-72.94927,2309499.045
46673,SO - 0006069,2017-01-08,Viva Ltd,Product 24,Distributor,10,2211.0,22110.0,906.51,TX,Orange County/Jefferson County,Texas,South,29.8334,-93.96632,756557.97
46674,SO - 0006519,2017-01-08,Pacific Ltd,Product 26,Wholesale,8,1031.8,8254.4,546.854,NJ,Hudson County,New Jersey,Northeast,40.66871,-74.11431,5685138.2700000005
46675,SO - 0001485,2017-01-08,Janyx Group,Product 5,Wholesale,11,3658.2000000000003,40240.200000000004,2707.068,IN,Monroe County,Indiana,Midwest,39.11904,-86.51979,3925424.5420000004
46676,SO - 0002118,2017-01-08,Yombu Corp,Product 21,Wholesale,10,3959.7000000000003,39597.0,1663.074,FL,Leon County,Florida,South,30.43826,-84.28073,959899.2180000001
46677,SO - 0004078,2017-01-08,Fivechat Company,Product 5,Wholesale,6,1139.0,6834.0,501.16,PA,Lancaster County,Pennsylvania,Northeast,40.03788,-76.30551,3925424.5420000004
46678,SO - 0005023,2017-01-08,Organon Corp,Product 26,Wholesale,7,3859.2000000000003,27014.4,1891.008,MD,Prince George's County,Maryland,South,38.94278,-76.73028,5685138.2700000005
46679,SO - 0006156,2017-01-08,CLINIQUE Ltd,Product 1,Wholesale,12,1835.8,22029.6,972.974,CA,San Diego County,California,West,32.83838,-116.97392,3016489.209
46680,SO - 0007889,2017-01-08,Topiczoom Corp,Product 1,Wholesale,9,5051.8,45466.200000000004,3081.598,IL,Kane County,Illinois,Midwest,41.94151,-88.321,3016489.209
46681,SO - 0007978,2017-01-08,Brightdog Corp,Product 13,Distributor,9,268.0,2412.0,160.79999999999998,CA,Santa Cruz County,California,West,36.97412,-122.0308,3720639.645
46682,SO - 0008940,2017-01-08,Arbor Company,Product 26,Distributor,6,2278.0,13668.0,1321.24,MI,Macomb County,Michigan,Midwest,42.49698,-82.88881,5685138.2700000005
46683,SO - 0001179,2017-01-08,Army Group,Product 27,Distributor,12,1045.2,12542.400000000001,585.3120000000001,WA,Spokane County,Washington,West,47.67323,-117.23937,964940.2310000001
46684,SO - 0003031,2017-01-08,Zoonder Group,Product 28,Wholesale,12,254.6,3055.2,180.766,ND,Burleigh County,North Dakota,Midwest,46.80833,-100.78374,1003867.767
46685,SO - 0003144,2017-01-08,Yombu Corp,Product 17,Distributor,9,750.4,6753.599999999999,630.336,CA,San Diego County,California,West,32.79477,-116.96253,2119616.824
46686,SO - 0003652,2017-01-08,Revitol Company,Product 1,Distributor,11,978.2,10760.2,469.536,MI,Wayne County,Michigan,Midwest,42.24087,-83.26965,3016489.209
46687,SO - 0005043,2017-01-08,Cadila Ltd,Product 18,Distributor,10,897.8000000000001,8978.0,466.85600000000005,CA,Contra Costa County,California,West,37.90631,-122.06496,2309499.045
46688,SO - 0001086,2017-01-09,Livepath Corp,Product 15,Wholesale,5,5996.5,29982.5,3777.795,IN,Marion County,Indiana,Midwest,39.67674,-86.15616,3299478.315
46689,SO - 0002917,2017-01-09,Avamba Company,Product 3,Wholesale,7,5038.400000000001,35268.8,2418.4320000000002,CO,Jefferson County,Colorado,West,39.70471,-105.08137,2642352.432
46690,SO - 0004231,2017-01-09,Johnson Ltd,Product 25,Distributor,12,1051.9,12622.800000000001,831.0010000000001,IL,Cook County,Illinois,Midwest,42.0299,-87.97733,5342315.484
46691,SO - 0005191,2017-01-09,NARS Group,Product 25,Distributor,12,1172.5,14070.0,539.35,CA,Santa Cruz County,California,West,36.97412,-122.0308,5342315.484
46692,SO - 0007771,2017-01-09,Shuffledri Group,Product 26,Distributor,8,2211.0,17688.0,1083.3899999999999,MN,Hennepin County,Minnesota,Midwest,45.01052,-93.45551,5685138.2700000005
46693,SO - 0009804,2017-01-09,General Company,Product 17,Distributor,5,5366.7,26833.5,2951.685,VA,Suffolk city,Virginia,South,36.72821,-76.58356,2119616.824
46694,SO - 0010321,2017-01-09,Eire Corp,Product 7,Wholesale,11,1031.8,11349.8,588.126,CA,Tulare County,California,West,36.33023,-119.29206,889737.555
46695,SO - 0010747,2017-01-09,Aveda Group,Product 8,Distributor,6,268.0,1608.0,152.76,CA,Los Angeles County,California,West,34.08057,-118.07285,1085037.3290000001
46696,SO - 000880,2017-01-09,Trunyx Ltd,Product 4,Wholesale,9,6123.8,55114.200000000004,4960.278,PA,Lehigh County/Northampton County,Pennsylvania,Northeast,40.62642,-75.3679,2885560.824
46697,SO - 000996,2017-01-09,WOONSOCKET Corp,Product 5,Distributor,6,1273.0,7638.0,814.72,CO,Adams County/Douglas County/Arapahoe County,Colorado,West,39.688,-104.68974,3925424.5420000004
46698,SO - 0003392,2017-01-09,Cadila Ltd,Product 26,Wholesale,12,3859.2000000000003,46310.4,1698.0480000000002,CA,Los Angeles County,California,West,33.98168,-118.22507,5685138.2700000005
46699,SO - 0003416,2017-01-09,Aveda Group,Product 18,Wholesale,10,3926.2000000000003,39262.0,3258.746,MO,St. Charles County,Missouri,Midwest,38.80033,-90.62651,2309499.045
46700,SO - 0003729,2017-01-09,Liberty Group,Product 15,Wholesale,9,6210.900000000001,55898.100000000006,4223.412,CA,Placer County,California,West,38.79073,-121.23578,3299478.315
46701,SO - 0005540,2017-01-09,Thoughtmix Ltd,Product 5,Export,11,3993.2000000000003,43925.200000000004,3354.288,CA,Riverside County,California,West,34.00259,-117.46761,3925424.5420000004
46702,SO - 0007064,2017-01-09,Pfizer Corp,Product 26,Wholesale,10,3008.3,30083.0,2075.727,VA,Newport News city,Virginia,South,36.97876,-76.428,5685138.2700000005
46703,SO - 0007875,2017-01-09,Zoomzone Corp,Product 19,Distributor,11,1956.4,21520.4,939.072,TX,Tarrant County,Texas,South,32.73569,-97.10807,1645841.6
46704,SO - 0002075,2017-01-09,Trunyx Ltd,Product 11,Distributor,5,991.6,4958.0,743.7,IN,Lake County,Indiana,Midwest,41.61329,-87.47085,1230458.484
46705,SO - 0004908,2017-01-09,CARDINAL Group,Product 26,Wholesale,9,261.3,2351.7000000000003,143.71500000000003,IL,Champaign County,Illinois,Midwest,40.11642,-88.24338,5685138.2700000005
46706,SO - 0005037,2017-01-09,Unit Ltd,Product 17,Distributor,10,2318.2000000000003,23182.000000000004,1553.1940000000002,IL,McLean County,Illinois,Midwest,40.53839,-88.98528,2119616.824
46707,SO - 0005621,2017-01-09,Pixoboo Corp,Product 14,Distributor,11,6023.3,66256.3,3915.1450000000004,MD,Baltimore County,Maryland,South,39.25066,-76.52052,4028698.4090000005
46708,SO - 0008062,2017-01-09,Geiss Company,Product 18,Wholesale,10,3892.7000000000003,38927.0,2724.89,CA,Los Angeles County,California,West,34.00944,-118.10528,2309499.045
46709,SO - 0008304,2017-01-09,WOCKHARDT Group,Product 26,Export,7,2552.7000000000003,17868.9,1480.566,IN,Johnson County,Indiana,Midwest,39.58265,-86.095,5685138.2700000005
46710,SO - 0008700,2017-01-09,Aromaticos Company,Product 18,Distributor,8,174.20000000000002,1393.6000000000001,142.844,IL,Cook County,Illinois,Midwest,41.84559,-87.75394,2309499.045
46711,SO - 0009141,2017-01-09,Linkbuzz Ltd,Product 17,Wholesale,9,1118.9,10070.1,704.907,CA,Los Angeles County,California,West,33.83141,-118.28202,2119616.824
46712,SO - 000577,2017-01-09,Skyvu Group,Product 17,Export,5,1011.7,5058.5,667.7220000000001,NY,Suffolk County,New York,Northeast,40.84989,-72.46349,2119616.824
46713,SO - 000786,2017-01-09,Gabvine Ltd,Product 13,Wholesale,11,3008.3,33091.3,2406.6400000000003,MI,Oakland County,Michigan,Midwest,42.48531,-83.37716,3720639.645
46714,SO - 0002842,2017-01-09,Pixoboo Corp,Product 30,Export,6,1018.4,6110.4,427.72799999999995,IL,Cook County,Illinois,Midwest,42.03209,-87.75778,1011609.684
46715,SO - 0003048,2017-01-09,Skippad Ltd,Product 13,Wholesale,5,1775.5,8877.5,1065.3,IL,McHenry County,Illinois,Midwest,42.19807,-88.27594,3720639.645
46716,SO - 0009507,2017-01-09,Devpoint Group,Product 2,Wholesale,10,3028.4,30284.0,1877.608,NY,Nassau County,New York,Northeast,40.70621,-73.61874,3050087.565
46717,SO - 0009767,2017-01-09,BTA Corp,Product 16,Export,10,3966.4,39664.0,2102.192,VA,Portsmouth city,Virginia,South,36.83543,-76.29827,2062061.144
46718,SO - 000174,2017-01-09,Vitz Company,Product 4,Distributor,10,2659.9,26599.0,2154.5190000000002,NC,New Hanover County,North Carolina,South,34.22573,-77.94471,2885560.824
46719,SO - 000322,2017-01-09,Brightdog Corp,Product 19,Wholesale,11,2412.0,26532.0,1013.04,VA,Roanoke city,Virginia,South,37.27097,-79.94143,1645841.6
46720,SO - 000887,2017-01-09,Skiptube Ltd,Product 25,Distributor,7,1681.7,11771.9,1345.3600000000001,IN,Elkhart County,Indiana,Midwest,41.65183,-85.94312,5342315.484
46721,SO - 0003703,2017-01-09,Blogtags Ltd,Product 14,Wholesale,8,247.9,1983.2,168.572,NJ,Essex County,New Jersey,Northeast,40.72386,-74.23252,4028698.4090000005
46722,SO - 0003739,2017-01-09,Geiss Company,Product 2,Wholesale,10,167.5,1675.0,110.55000000000001,TX,Dallas County,Texas,South,32.81402,-96.94889,3050087.565
46723,SO - 0005631,2017-01-09,Oba Company,Product 7,Wholesale,6,2485.7000000000003,14914.2,1889.1320000000003,CA,Orange County,California,West,33.88863,-117.81311,889737.555
46724,SO - 0006996,2017-01-09,Browsetype Corp,Product 26,Wholesale,9,180.9,1628.1000000000001,103.113,CA,Los Angeles County,California,West,34.57943,-118.11646,5685138.2700000005
46725,SO - 0009207,2017-01-09,Thoughtmix Ltd,Product 1,Distributor,8,1728.6000000000001,13828.800000000001,726.0120000000001,MD,Anne Arundel County,Maryland,South,39.16261,-76.62469,3016489.209
46726,SO - 0008128,2017-01-09,Tambee Company,Product 4,Wholesale,7,6539.2,45774.4,4708.223999999999,TN,Knox County,Tennessee,South,35.96064,-83.92074,2885560.824
46727,SO - 0004142,2017-01-09,Safecor Corp,Product 6,Wholesale,6,2284.7000000000003,13708.2,1416.5140000000001,NV,Clark County,Nevada,West,36.21108,-115.07306,1672229.416
46728,SO - 0009811,2017-01-09,Kazu Corp,Product 26,Wholesale,9,958.1,8622.9,699.413,MT,Yellowstone County,Montana,West,45.78329,-108.50069,5685138.2700000005
46729,SO - 0010769,2017-01-09,Golden Corp,Product 10,Wholesale,10,3872.6,38726.0,2749.546,CA,Sonoma County,California,West,38.44047,-122.71443,864331.624
46730,SO - 0002383,2017-01-10,Skiptube Ltd,Product 22,Wholesale,5,3778.8,18894.0,3023.0400000000004,TX,Tarrant County,Texas,South,32.73569,-97.10807,663601.902
46731,SO - 0003482,2017-01-10,Aibox Company,Product 13,Distributor,11,1273.0,14003.0,954.75,IL,McLean County,Illinois,Midwest,40.47578,-88.96991,3720639.645
46732,SO - 0006017,2017-01-10,Cogilith Group,Product 20,Export,5,1775.5,8877.5,1296.115,RI,Providence County,Rhode Island,Northeast,41.77982,-71.43728,2067108.1199999999
46733,SO - 0008236,2017-01-10,EMD Group,Product 4,Distributor,10,3845.8,38458.0,1884.442,FL,Volusia County,Florida,South,29.13832,-80.99561,2885560.824
46734,SO - 0010451,2017-01-10,Zoomzone Corp,Product 26,Export,7,1118.9,7832.300000000001,525.883,MI,Ottawa County,Michigan,Midwest,42.90538,-85.8446,5685138.2700000005
46735,SO - 0008205,2017-01-10,Fred's Company,Product 16,Export,9,3919.5,35275.5,2822.04,FL,Volusia County,Florida,South,29.13832,-80.99561,2062061.144
46736,SO - 0001181,2017-01-10,Oba Company,Product 27,Distributor,6,2559.4,15356.400000000001,2124.302,TX,Smith County,Texas,South,32.35126,-95.30106,964940.2310000001
46737,SO - 0007086,2017-01-10,Aibox Company,Product 26,Wholesale,7,2345.0,16415.0,1219.4,MO,St. Charles County,Missouri,Midwest,38.80033,-90.62651,5685138.2700000005
46738,SO - 0010104,2017-01-10,US Ltd,Product 12,Distributor,7,3879.3,27155.100000000002,3219.819,CA,Monterey County,California,West,36.67774,-121.6555,1356976.996
46739,SO - 0008564,2017-01-10,Rochester Group,Product 19,Distributor,6,3289.7000000000003,19738.2,1480.3650000000002,VA,Newport News city,Virginia,South,36.97876,-76.428,1645841.6
46740,SO - 0010116,2017-01-10,Topco Company,Product 23,Export,11,2659.9,29258.9,1861.9299999999998,CO,Adams County/Douglas County/Arapahoe County,Colorado,West,39.688,-104.68974,1135815.7580000001
46741,SO - 0009426,2017-01-10,Bluezoom Group,Product 13,Wholesale,12,2311.5,27738.0,1109.52,IN,Allen County,Indiana,Midwest,41.13925,-85.05898,3720639.645
46742,SO - 0002929,2017-01-10,Chatterpoi Corp,Product 25,Distributor,8,3986.5,31892.0,1594.6000000000001,KS,Johnson County,Kansas,Midwest,38.95362,-94.73357,5342315.484
46743,SO - 0005255,2017-01-10,Chatterbri Ltd,Product 13,Wholesale,5,1929.6000000000001,9648.0,1485.7920000000001,FL,Orange County,Florida,South,28.55778,-81.4534,3720639.645
46744,SO - 000862,2017-01-10,Zooveo Company,Product 14,Wholesale,11,1139.0,12529.0,717.57,CA,Alameda County,California,West,37.54827,-121.98857,4028698.4090000005
46745,SO - 0001674,2017-01-10,Aimbo Corp,Product 3,Wholesale,10,207.70000000000002,2077.0,83.08000000000001,CA,San Diego County,California,West,32.83838,-116.97392,2642352.432
46746,SO - 0003352,2017-01-10,EMD Group,Product 15,Wholesale,12,1795.6000000000001,21547.2,1256.92,TX,Fort Bend County/Harris County/Brazoria County,Texas,South,29.55576,-95.32307,3299478.315
46747,SO - 0005026,2017-01-10,Brightdog Corp,Product 8,Wholesale,5,2566.1,12830.5,1950.2359999999999,CA,Alameda County,California,West,37.68187,-121.76801,1085037.3290000001
46748,SO - 0005739,2017-01-10,Blogspan Ltd,Product 13,Wholesale,5,1132.3,5661.5,600.119,CA,Riverside County,California,West,34.00259,-117.46761,3720639.645
46749,SO - 0006620,2017-01-10,ALK-Abello Ltd,Product 17,Distributor,6,1085.4,6512.400000000001,770.634,CA,San Bernardino County,California,West,34.03363,-117.04309,2119616.824
46750,SO - 0009655,2017-01-10,Divanoodle Ltd,Product 15,Wholesale,11,1072.0,11792.0,536.0,OK,Garfield County,Oklahoma,South,36.39559,-97.87839,3299478.315
46751,SO - 0009438,2017-01-10,Ozu Ltd,Product 20,Wholesale,8,2492.4,19939.2,2043.768,NY,Albany County,New York,Northeast,42.74333,-73.7856,2067108.1199999999
46752,SO - 0009952,2017-01-10,Skyvu Group,Product 25,Distributor,8,261.3,2090.4,154.167,MD,Frederick County,Maryland,South,39.41427,-77.41054,5342315.484
46753,SO - 0008368,2017-01-10,Organon Corp,Product 13,Distributor,5,3457.2000000000003,17286.0,1486.596,CA,Los Angeles County,California,West,33.88168,-118.11701,3720639.645
46754,SO - 000388,2017-01-10,Quaxo Ltd,Product 18,Distributor,11,1045.2,11497.2,804.8040000000001,TX,Victoria County,Texas,South,28.80527,-97.0036,2309499.045
46755,SO - 000792,2017-01-10,SAFEWAY Ltd,Product 19,Distributor,9,1011.7,9105.300000000001,505.85,PA,Allegheny County,Pennsylvania,Northeast,40.44062,-79.99589,1645841.6
46756,SO - 000870,2017-01-10,Twitterbri Ltd,Product 28,Wholesale,7,2834.1,19838.7,1190.322,CA,Monterey County,California,West,36.67774,-121.6555,1003867.767
46757,SO - 0002688,2017-01-10,Tambee Company,Product 15,Distributor,12,924.6,11095.2,591.744,TX,Williamson County/Travis County,Texas,South,30.455,-97.60847,3299478.315
46758,SO - 0003535,2017-01-10,Internatio Company,Product 14,Wholesale,5,1976.5,9882.5,1462.61,MI,Wayne County,Michigan,Midwest,42.24087,-83.26965,4028698.4090000005
46759,SO - 0005793,2017-01-10,Cadila Ltd,Product 14,Distributor,8,1118.9,8951.2,593.017,CA,San Bernardino County,California,West,34.03363,-117.04309,4028698.4090000005
46760,SO - 0006177,2017-01-10,Eidel Corp,Product 25,Wholesale,5,1165.8,5829.0,571.242,VA,Prince William County,Virginia,South,38.63706,-77.31109,5342315.484
46761,SO - 0006512,2017-01-10,Talane Group,Product 26,Distributor,5,1005.0,5025.0,603.0,AL,Limestone County/Morgan County,Alabama,South,34.57332,-86.99214,5685138.2700000005
46762,SO - 0006580,2017-01-10,Eire Corp,Product 17,Distributor,8,2881.0,23048.0,2189.56,FL,Leon County,Florida,South,30.43826,-84.28073,2119616.824
46763,SO - 0008295,2017-01-10,CLINIQUE Ltd,Product 14,Wholesale,9,3162.4,28461.600000000002,1739.3200000000002,CO,Jefferson County,Colorado,West,39.70471,-105.08137,4028698.4090000005
46764,SO - 0009267,2017-01-10,BTA Corp,Product 10,Distributor,6,3879.3,23275.800000000003,3142.233,IN,Marion County.,Indiana,Midwest,39.778,-86.14584,864331.624
46765,SO - 0008337,2017-01-10,Valeant Corp,Product 18,Distributor,10,1105.5,11055.0,442.20000000000005,SC,Charleston County,South Carolina,South,32.79407,-79.86259,2309499.045
46766,SO - 0006930,2017-01-10,Podcat Corp,Product 25,Distributor,7,2592.9,18150.3,1089.018,MN,Hennepin County,Minnesota,Midwest,45.01052,-93.45551,5342315.484
46767,SO - 0007924,2017-01-10,SUPERVALU Ltd,Product 15,Export,10,268.0,2680.0,217.08,CA,Los Angeles County,California,West,33.95474,-118.21202,3299478.315
46768,SO - 0007930,2017-01-10,Kaymbo Company,Product 15,Wholesale,9,1045.2,9406.800000000001,512.148,IL,Cook County,Illinois,Midwest,42.04639,-87.69435,3299478.315
46769,SO - 0009365,2017-01-10,Tekfly Group,Product 5,Distributor,12,864.3000000000001,10371.6,561.7950000000001,UT,Utah County,Utah,West,40.39162,-111.85077,3925424.5420000004
46770,SO - 0009252,2017-01-10,Skiptube Ltd,Product 4,Distributor,6,2485.7000000000003,14914.2,1292.564,CA,Sacramento County,California,West,38.60336,-121.38005,2885560.824
46771,SO - 0001559,2017-01-11,Jabbercube Corp,Product 21,Wholesale,7,1989.9,13929.300000000001,835.758,CA,San Diego County,California,West,32.71533,-117.15726,959899.2180000001
46772,SO - 0003823,2017-01-11,Arbor Company,Product 4,Distributor,5,737.0,3685.0,346.39,AZ,Yuma County,Arizona,West,32.72532,-114.6244,2885560.824
46773,SO - 0005488,2017-01-11,Amerisourc Corp,Product 26,Distributor,5,6465.5,32327.5,4073.265,MN,Anoka County,Minnesota,Midwest,45.11997,-93.28773,5685138.2700000005
46774,SO - 0006800,2017-01-11,Cadila Ltd,Product 3,Export,11,2519.2000000000003,27711.200000000004,1058.064,MD,Baltimore County,Maryland,South,39.25066,-76.52052,2642352.432
46775,SO - 0007102,2017-01-11,Oba Company,Product 26,Wholesale,6,2318.2000000000003,13909.2,1947.2880000000002,CA,Sacramento County,California,West,38.60336,-121.38005,5685138.2700000005
46776,SO - 0007855,2017-01-11,sanofi-ave Group,Product 7,Wholesale,9,958.1,8622.9,421.564,FL,Volusia County,Florida,South,29.13832,-80.99561,889737.555
46777,SO - 0009438,2017-01-11,Ozu Ltd,Product 20,Wholesale,8,2492.4,19939.2,2043.768,FL,Orange County,Florida,South,28.5641,-81.2114,2067108.1199999999
46778,SO - 0009190,2017-01-11,Gabvine Ltd,Product 25,Wholesale,10,3075.3,30753.0,1722.1680000000003,CA,San Mateo County,California,West,37.56299,-122.32553,5342315.484
46779,SO - 0009303,2017-01-11,Avavee Group,Product 16,Wholesale,12,837.5,10050.0,628.125,NJ,Essex County,New Jersey,Northeast,40.73566,-74.17237,2062061.144
46780,SO - 0004286,2017-01-11,Meejo Corp,Product 19,Wholesale,6,703.5,4221.0,337.68,CA,San Bernardino County,California,West,34.05557,-117.18254,1645841.6
46781,SO - 0004310,2017-01-11,Cadila Ltd,Product 17,Distributor,11,1112.2,12234.2,912.004,NC,Durham County/Wake County,North Carolina,South,35.8306,-78.64177,2119616.824
46782,SO - 0005286,2017-01-11,Gabvine Ltd,Product 13,Export,6,1159.1000000000001,6954.6,486.82200000000006,NC,Mecklenburg County,North Carolina,South,35.22709,-80.84313,3720639.645
46783,SO - 0005853,2017-01-11,Kaymbo Company,Product 25,Distributor,6,2244.5,13467.0,1077.36,MI,Macomb County,Michigan,Midwest,42.58031,-83.0302,5342315.484
46784,SO - 0006029,2017-01-11,Safecor Corp,Product 23,Export,7,201.0,1407.0,84.42,NJ,Hudson County,New Jersey,Northeast,40.74399,-74.03236,1135815.7580000001
46785,SO - 0007760,2017-01-11,ALK-Abello Ltd,Product 26,Export,8,1333.3,10666.4,719.982,MD,Baltimore County,Maryland,South,39.4015,-76.60191,5685138.2700000005
46786,SO - 0009202,2017-01-11,Kazu Corp,Product 21,Wholesale,7,2458.9,17212.3,1303.217,ND,Cass County,North Dakota,Midwest,46.87719,-96.7898,959899.2180000001
46787,SO - 0009993,2017-01-11,Skyvu Group,Product 1,Wholesale,11,3872.6,42598.6,1665.2179999999998,MA,Middlesex County,Massachusetts,Northeast,42.41843,-71.10616,3016489.209
46788,SO - 0004528,2017-01-11,BTA Corp,Product 25,Wholesale,11,6358.3,69941.3,3942.146,CA,San Joaquin County,California,West,38.1302,-121.27245,5342315.484
46789,SO - 0005326,2017-01-11,Mydo Corp,Product 4,Distributor,8,917.9,7343.2,771.036,NY,Erie County,New York,Northeast,42.91002,-78.74182,2885560.824
46790,SO - 0005945,2017-01-11,Zoonoodle Ltd,Product 11,Distributor,5,5956.3,29781.5,3216.4020000000005,CA,Madera County,California,West,36.96134,-120.06072,1230458.484
46791,SO - 0007016,2017-01-11,Kaymbo Company,Product 3,Export,11,1098.8,12086.8,813.112,ND,Burleigh County,North Dakota,Midwest,46.80833,-100.78374,2642352.432
46792,SO - 0009589,2017-01-11,Geiss Company,Product 2,Wholesale,11,837.5,9212.5,644.875,MN,Hennepin County,Minnesota,Midwest,44.8408,-93.29828,3050087.565
46793,SO - 000898,2017-01-11,Browsebug Company,Product 5,Distributor,5,690.1,3450.5,338.149,UT,Salt Lake County,Utah,West,40.76078,-111.89105,3925424.5420000004
46794,SO - 0002918,2017-01-11,Pfizer Corp,Product 26,Wholesale,7,3859.2000000000003,27014.4,1736.64,NJ,Monmouth County,New Jersey,Northeast,40.40709,-74.06984,5685138.2700000005
46795,SO - 0003817,2017-01-11,Wordpedia Ltd,Product 4,Wholesale,11,261.3,2874.3,109.746,NJ,Ocean County,New Jersey,Northeast,40.0908,-74.36126,2885560.824
46796,SO - 0007911,2017-01-11,State Ltd,Product 13,Wholesale,10,6324.8,63248.0,2719.664,MA,Middlesex County,Massachusetts,Northeast,42.3751,-71.10561,3720639.645
46797,SO - 0008062,2017-01-11,Geiss Company,Product 18,Wholesale,10,3892.7000000000003,38927.0,2724.89,IL,Will County,Illinois,Midwest,41.5136,-87.84645,2309499.045
46798,SO - 0009975,2017-01-11,Flipstorm Group,Product 1,Export,5,3819.0,19095.0,2864.25,NM,Bernalillo County,New Mexico,West,35.08449,-106.65114,3016489.209
46799,SO - 0009886,2017-01-11,Valeant Corp,Product 13,Wholesale,11,3906.1,42967.1,3203.002,IN,Vanderburgh County,Indiana,Midwest,37.97476,-87.55585,3720639.645
46800,SO - 0009556,2017-01-11,Nexus Group,Product 13,Distributor,10,2646.5,26465.0,1879.0149999999999,TX,Rockwall County/Collin County/Dallas County,Texas,South,32.90983,-96.63033,3720639.645
46801,SO - 0003617,2017-01-11,Realbridge Corp,Product 19,Distributor,11,1132.3,12455.3,679.38,LA,Bossier Parish,Louisiana,South,32.51599,-93.73212,1645841.6
46802,SO - 0010398,2017-01-11,Remedy Ltd,Product 2,Wholesale,10,268.0,2680.0,211.72,CA,Orange County,California,West,33.74585,-117.82617,3050087.565
46803,SO - 0001745,2017-01-11,Remedy Ltd,Product 20,Wholesale,5,1118.9,5594.5,682.529,OH,Stark County,Ohio,Midwest,40.79895,-81.37845,2067108.1199999999
46804,SO - 0003116,2017-01-11,Fivebridge Ltd,Product 7,Export,12,1058.6000000000001,12703.2,476.37000000000006,WA,Pierce County,Washington,West,47.17176,-122.51846,889737.555
46805,SO - 0003672,2017-01-11,Internatio Company,Product 5,Wholesale,12,3939.6,47275.2,2836.5119999999997,MN,Dakota County,Minnesota,Midwest,44.73191,-93.21772,3925424.5420000004
46806,SO - 0005191,2017-01-11,NARS Group,Product 25,Distributor,12,1172.5,14070.0,539.35,CA,Santa Cruz County,California,West,36.91023,-121.75689,5342315.484
46807,SO - 0006121,2017-01-11,EMD Group,Product 25,Distributor,10,1038.5,10385.0,571.1750000000001,CO,Mesa County,Colorado,West,39.06387,-108.55065,5342315.484
46808,SO - 0006163,2017-01-11,Skajo Ltd,Product 5,Wholesale,10,1058.6000000000001,10586.000000000002,529.3000000000001,IL,Macon County,Illinois,Midwest,39.8463,-88.95822,3925424.5420000004
46809,SO - 0006366,2017-01-11,Snaptags Ltd,Product 14,Wholesale,5,1715.2,8576.0,1080.576,CA,Riverside County,California,West,33.93752,-117.23059,4028698.4090000005
46810,SO - 0008885,2017-01-11,Zava Group,Product 2,Wholesale,5,1943.0,9715.0,1651.55,IL,DuPage County,Illinois,Midwest,41.7543,-87.97753,3050087.565
46811,SO - 0008718,2017-01-11,Realpoint Corp,Product 18,Wholesale,5,187.6,938.0,138.82399999999998,NC,Mecklenburg County,North Carolina,South,35.41069,-80.84285,2309499.045
46812,SO - 0001944,2017-01-12,Yodoo Ltd,Product 14,Distributor,8,3718.5,29748.0,1970.805,FL,Broward County,Florida,South,26.24453,-80.20644,4028698.4090000005
46813,SO - 0004311,2017-01-12,Vitz Company,Product 25,Wholesale,7,1018.4,7128.8,631.408,CA,Orange County,California,West,33.64113,-117.91867,5342315.484
46814,SO - 0005821,2017-01-12,Dazzlesphe Corp,Product 2,Wholesale,5,180.9,904.5,133.866,TX,Galveston County/Harris County,Texas,South,29.49006,-95.10909,3050087.565
46815,SO - 0008969,2017-01-12,Liberty Group,Product 24,Export,12,1092.1000000000001,13105.2,709.8650000000001,MD,Montgomery County,Maryland,South,39.17316,-77.27165,756557.97
46816,SO - 0010503,2017-01-12,Safecor Corp,Product 16,Wholesale,8,5272.900000000001,42183.200000000004,2372.8050000000003,NY,Erie County,New York,Northeast,42.88645,-78.87837,2062061.144
46817,SO - 0008684,2017-01-12,Skidoo Company,Product 10,Export,5,1098.8,5494.0,516.4359999999999,MD,Howard County,Maryland,South,39.26733,-76.79831,864331.624
46818,SO - 0001065,2017-01-12,Cogidoo Company,Product 4,Export,6,924.6,5547.6,406.824,FL,Broward County,Florida,South,26.27119,-80.2706,2885560.824
46819,SO - 0003283,2017-01-12,Fivebridge Ltd,Product 15,Wholesale,12,6418.6,77023.20000000001,3145.114,TX,Tom Green County,Texas,South,31.46377,-100.43704,3299478.315
46820,SO - 0004138,2017-01-12,Janyx Group,Product 26,Distributor,9,1889.4,17004.600000000002,1095.852,IL,McHenry County,Illinois,Midwest,42.19807,-88.27594,5685138.2700000005
46821,SO - 0004351,2017-01-12,Snaptags Ltd,Product 3,Wholesale,11,6304.7,69351.7,4413.29,SC,York County,South Carolina,South,34.92487,-81.02508,2642352.432
46822,SO - 0004928,2017-01-12,Roomm Company,Product 15,Wholesale,12,2532.6,30391.199999999997,1063.692,CA,Riverside County,California,West,33.77974,-116.46529,3299478.315
46823,SO - 0010317,2017-01-12,Wordpedia Ltd,Product 13,Distributor,9,268.0,2412.0,222.44,CA,Riverside County,California,West,34.00259,-117.46761,3720639.645
46824,SO - 0008729,2017-01-12,SUPERVALU Ltd,Product 3,Distributor,9,3504.1,31536.899999999998,1997.3369999999998,MD,Prince George's County,Maryland,South,38.94278,-76.73028,2642352.432
46825,SO - 0010407,2017-01-12,Roberts Company,Product 12,Distributor,11,6237.7,68614.7,4304.013,CT,New Haven County,Connecticut,Northeast,41.27065,-72.94705,1356976.996
46826,SO - 0001796,2017-01-12,Yodoo Ltd,Product 3,Wholesale,9,1721.9,15497.1,1360.3010000000002,CA,San Bernardino County,California,West,34.09223,-117.43505,2642352.432
46827,SO - 0002728,2017-01-12,Zava Group,Product 26,Distributor,11,1112.2,12234.2,878.638,FL,Miami-Dade County,Florida,South,25.46872,-80.47756,5685138.2700000005
46828,SO - 0002774,2017-01-12,Mita Corp,Product 26,Wholesale,6,3886.0,23316.0,1981.8600000000001,IL,DuPage County,Illinois,Midwest,41.94563,-88.08462,5685138.2700000005
46829,SO - 0003309,2017-01-12,Vimbo Company,Product 19,Export,7,2351.7000000000003,16461.9,1622.673,SC,Berkeley County/Charleston County,South Carolina,South,32.81793,-79.95896,1645841.6
46830,SO - 0006626,2017-01-12,Vimbo Company,Product 4,Wholesale,8,2472.3,19778.4,988.9200000000001,IN,Marion County,Indiana,Midwest,39.77186,-86.26094,2885560.824
46831,SO - 0010624,2017-01-12,Buzzshare Company,Product 14,Wholesale,8,3999.9,31999.2,2919.927,TX,Dallas County,Texas,South,32.81402,-96.94889,4028698.4090000005
46832,SO - 0008105,2017-01-12,Sanum-Kehl Group,Product 26,Export,9,1802.3,16220.699999999999,1153.472,CO,Jefferson County,Colorado,West,39.70471,-105.08137,5685138.2700000005
46833,SO - 0005235,2017-01-12,Feednation Corp,Product 13,Wholesale,7,2412.0,16884.0,1712.52,NY,Suffolk County,New York,Northeast,40.85745,-72.95984,3720639.645
46834,SO - 0006693,2017-01-12,Rhynoodle Ltd,Product 20,Wholesale,12,3986.5,47838.0,3229.065,OR,Jackson County,Oregon,West,42.32652,-122.87559,2067108.1199999999
46835,SO - 0007880,2017-01-12,Devpoint Group,Product 20,Wholesale,12,3999.9,47998.8,1839.9540000000002,FL,Broward County,Florida,South,26.25175,-80.17894,2067108.1199999999
46836,SO - 0010373,2017-01-12,Dynazzy Company,Product 25,Wholesale,10,3906.1,39061.0,2695.209,IL,Cook County,Illinois,Midwest,41.77475,-87.8596,5342315.484
46837,SO - 0008374,2017-01-12,Voonyx Group,Product 5,Wholesale,7,2546.0,17822.0,1476.6799999999998,CT,New Haven County,Connecticut,Northeast,41.27212,-72.9675,3925424.5420000004
46838,SO - 0010019,2017-01-12,Zoomzone Corp,Product 29,Wholesale,7,3155.7000000000003,22089.9,1988.0910000000001,CA,Riverside County,California,West,33.72058,-116.21556,594471.5700000001
46839,SO - 000925,2017-01-12,Natures Group,Product 25,Wholesale,6,2579.5,15477.0,1134.98,UT,Davis County,Utah,West,41.06022,-111.97105,5342315.484
46840,SO - 0003049,2017-01-12,Bath Group,Product 20,Wholesale,6,737.0,4422.0,501.16,CA,Los Angeles County,California,West,34.06862,-117.93895,2067108.1199999999
46841,SO - 0005370,2017-01-12,Centizu Company,Product 17,Distributor,7,1085.4,7597.800000000001,629.532,AZ,Maricopa County/Yavapai County,Arizona,West,33.7862,-112.30801,2119616.824
46842,SO - 000299,2017-01-12,Linkbuzz Ltd,Product 1,Wholesale,7,5045.1,35315.700000000004,3380.2170000000006,NY,Suffolk County,New York,Northeast,40.88409,-73.37676,3016489.209
46843,SO - 0001260,2017-01-12,Liberty Group,Product 2,Wholesale,12,2814.0,33768.0,2166.78,MA,Middlesex County,Massachusetts,Northeast,42.30791,-71.4362,3050087.565
46844,SO - 0003007,2017-01-12,Blogspan Ltd,Product 5,Distributor,9,2673.3,24059.7,1096.053,WA,King County,Washington,West,47.68149,-122.20874,3925424.5420000004
46845,SO - 0003086,2017-01-12,Mycone Ltd,Product 4,Distributor,6,201.0,1206.0,136.68,CA,Orange County,California,West,33.74585,-117.82617,2885560.824
46846,SO - 0004251,2017-01-12,NCS Group,Product 23,Distributor,7,1145.7,8019.900000000001,744.705,CA,Placer County,California,West,38.75212,-121.28801,1135815.7580000001
46847,SO - 0006707,2017-01-12,Zooveo Company,Product 26,Wholesale,7,1005.0,7035.0,432.15,NJ,Camden County,New Jersey,Northeast,39.90461,-74.997,5685138.2700000005
46848,SO - 0006712,2017-01-12,Twinte Group,Product 1,Distributor,11,864.3000000000001,9507.300000000001,388.93500000000006,MN,Dakota County,Minnesota,Midwest,44.80413,-93.16689,3016489.209
46849,SO - 0006838,2017-01-12,Accord Group,Product 28,Wholesale,8,2525.9,20207.2,2020.7200000000003,FL,Osceola County,Florida,South,28.29196,-81.40757,1003867.767
46850,SO - 0009698,2017-01-12,Snaptags Ltd,Product 20,Wholesale,7,2626.4,18384.8,1339.4640000000002,UT,Salt Lake County,Utah,West,40.68689,-111.87549,2067108.1199999999
46851,SO - 0009233,2017-01-12,Omba Group,Product 11,Distributor,5,1152.4,5762.0,691.44,IL,Winnebago County,Illinois,Midwest,42.24868,-89.07452,1230458.484
46852,SO - 000528,2017-01-13,Bath Group,Product 18,Wholesale,7,1031.8,7222.599999999999,464.31,IL,Cook County,Illinois,Midwest,42.08836,-87.98063,2309499.045
46853,SO - 000989,2017-01-13,EMD Group,Product 1,Distributor,6,1125.6000000000001,6753.6,754.1520000000002,AL,Tuscaloosa County,Alabama,South,33.20984,-87.56917,3016489.209
46854,SO - 0002201,2017-01-13,WOONSOCKET Corp,Product 26,Export,8,2385.2000000000003,19081.600000000002,1955.864,CA,Santa Clara County,California,West,37.323,-122.03218,5685138.2700000005
46855,SO - 0009381,2017-01-13,Feednation Corp,Product 3,Distributor,7,1675.0,11725.0,1323.25,MD,Montgomery County,Maryland,South,38.98067,-77.10026,2642352.432
46856,SO - 0009396,2017-01-13,Pfizer Corp,Product 12,Distributor,10,850.9,8509.0,340.36,NJ,Ocean County,New Jersey,Northeast,39.99426,-74.16615,1356976.996
46857,SO - 0001101,2017-01-13,Centizu Company,Product 14,Wholesale,6,3758.7000000000003,22552.2,3082.134,FL,Miami-Dade County,Florida,South,25.46872,-80.47756,4028698.4090000005
46858,SO - 0002492,2017-01-13,Snaptags Ltd,Product 26,Export,5,2224.4,11122.0,1201.1760000000002,NC,Onslow County,North Carolina,South,34.75405,-77.43024,5685138.2700000005
46859,SO - 0004851,2017-01-13,Yombu Corp,Product 3,Wholesale,6,1179.2,7075.200000000001,978.736,MI,Oakland County,Michigan,Midwest,42.48531,-83.37716,2642352.432
46860,SO - 0005949,2017-01-13,Zoonoodle Ltd,Product 13,Wholesale,11,2211.0,24321.0,950.73,IL,Cook County/DuPage County,Illinois,Midwest,42.02901,-88.08366,3720639.645
46861,SO - 0006782,2017-01-13,Wordpedia Ltd,Product 3,Export,7,5815.6,40709.200000000004,4826.948,TX,Fort Bend County/Harris County/Montgomery County,Texas,South,29.78664,-95.3909,2642352.432
46862,SO - 0007861,2017-01-13,Actavis Company,Product 18,Export,7,2532.6,17728.2,1747.494,NJ,Camden County,New Jersey,Northeast,39.92595,-75.11962,2309499.045
46863,SO - 0008095,2017-01-13,Topiczoom Corp,Product 18,Distributor,10,6070.2,60702.0,4127.736,IL,Winnebago County,Illinois,Midwest,42.24868,-89.07452,2309499.045
46864,SO - 0010768,2017-01-13,Vitz Company,Product 14,Wholesale,9,1085.4,9768.6,835.758,IA,Black Hawk County,Iowa,Midwest,42.49276,-92.34296,4028698.4090000005
46865,SO - 0002189,2017-01-13,Jayo Company,Product 22,Distributor,11,3852.5,42377.5,2812.325,PA,Lehigh County,Pennsylvania,Northeast,40.60843,-75.49018,663601.902
46866,SO - 0002608,2017-01-13,Voolith Ltd,Product 13,Export,11,1333.3,14666.3,706.649,AZ,Maricopa County/Yavapai County,Arizona,West,33.7862,-112.30801,3720639.645
46867,SO - 0006654,2017-01-13,Rooxo Company,Product 13,Distributor,10,2827.4,28274.0,2261.92,CO,Weld County,Colorado,West,40.42331,-104.70913,3720639.645
46868,SO - 0008208,2017-01-13,Trunyx Ltd,Product 16,Export,10,214.4,2144.0,109.34400000000001,PA,Lehigh County,Pennsylvania,Northeast,40.60843,-75.49018,2062061.144
46869,SO - 000643,2017-01-13,Flipbug Ltd,Product 5,Distributor,7,1005.0,7035.0,462.3,IL,DuPage County,Illinois,Midwest,41.948,-87.98061,3925424.5420000004
46870,SO - 0003578,2017-01-13,Flipbug Ltd,Product 25,Distributor,5,1038.5,5192.5,675.025,TX,Martin County/Midland County,Texas,South,32.02464,-102.11347,5342315.484
46871,SO - 0004175,2017-01-13,Topiczoom Corp,Product 4,Distributor,12,254.6,3055.2,137.484,CA,San Bernardino County,California,West,34.1064,-117.59311,2885560.824
46872,SO - 0008941,2017-01-13,Rhynoodle Ltd,Product 25,Wholesale,11,1708.5,18793.5,1178.865,NC,Mecklenburg County,North Carolina,South,35.41069,-80.84285,5342315.484
46873,SO - 0003213,2017-01-13,Gigabox Group,Product 6,Wholesale,10,690.1,6901.0,324.347,CT,Hartford County,Connecticut,Northeast,41.76371,-72.68509,1672229.416
46874,SO - 0003758,2017-01-13,Mylan Corp,Product 25,Distributor,6,1118.9,6713.400000000001,626.5840000000001,GA,DeKalb County,Georgia,South,33.85844,-84.3402,5342315.484
46875,SO - 0005090,2017-01-13,Voolia Ltd,Product 9,Distributor,12,227.8,2733.6000000000004,159.46,TX,Aransas County/Kleberg County/Nueces County/San Patricio County,Texas,South,27.75425,-97.17339,710415.405
46876,SO - 0006160,2017-01-13,Neutrogena Ltd,Product 13,Export,9,1092.1000000000001,9828.900000000001,688.0230000000001,LA,Jefferson Parish,Louisiana,South,29.99409,-90.24174,3720639.645
46877,SO - 0006282,2017-01-13,Pixoboo Corp,Product 5,Wholesale,9,3959.7000000000003,35637.3,2336.223,TX,Tarrant County,Texas,South,32.73569,-97.10807,3925424.5420000004
46878,SO - 0007181,2017-01-13,Zoovu Corp,Product 5,Wholesale,12,897.8000000000001,10773.6,673.35,CA,Los Angeles County,California,West,33.90224,-118.08173,3925424.5420000004
46879,SO - 0010322,2017-01-13,Eayo Company,Product 6,Wholesale,6,241.20000000000002,1447.2,205.02,WA,King County/Pierce County,Washington,West,47.30377,-122.21,1672229.416
46880,SO - 0009614,2017-01-13,Accudial Company,Product 3,Wholesale,8,2278.0,18224.0,1571.82,CT,Fairfield County,Connecticut,Northeast,41.39482,-73.45401,2642352.432
46881,SO - 0010354,2017-01-13,BTA Corp,Product 15,Distributor,6,2639.8,15838.800000000001,1768.6660000000002,CA,San Bernardino County,California,West,34.0739,-117.31365,3299478.315
46882,SO - 000397,2017-01-13,US Ltd,Product 14,Distributor,5,1112.2,5561.0,500.49,NY,New York County,New York,Northeast,40.72833,-73.99417,4028698.4090000005
46883,SO - 000886,2017-01-13,Vimbo Company,Product 21,Distributor,10,1219.4,12194.0,951.1320000000001,NJ,Hudson County,New Jersey,Northeast,40.72816,-74.07764,959899.2180000001
46884,SO - 0001414,2017-01-13,Oba Company,Product 25,Wholesale,11,1092.1000000000001,12013.100000000002,797.2330000000001,KS,Sedgwick County,Kansas,Midwest,37.69224,-97.33754,5342315.484
46885,SO - 0002056,2017-01-13,Wordtune Company,Product 5,Distributor,9,5701.7,51315.299999999996,4789.428,AR,Sebastian County,Arkansas,South,35.38592,-94.39855,3925424.5420000004
46886,SO - 0003963,2017-01-13,SAFEWAY Ltd,Product 30,Distributor,11,1145.7,12602.7,893.6460000000001,OR,Lane County,Oregon,West,44.05207,-123.08675,1011609.684
46887,SO - 0004993,2017-01-13,Aimbo Corp,Product 1,Distributor,5,1105.5,5527.5,718.575,CA,Los Angeles County,California,West,34.06862,-118.02757,3016489.209
46888,SO - 0005623,2017-01-13,Blogtags Ltd,Product 24,Wholesale,12,201.0,2412.0,166.82999999999998,VA,Fairfax County,Virginia,South,38.84039,-77.42888,756557.97
46889,SO - 0008098,2017-01-13,Revitol Company,Product 4,Export,5,6164.0,30820.0,4129.88,FL,Broward County,Florida,South,26.12231,-80.14338,2885560.824
46890,SO - 0010779,2017-01-13,Dazzlesphe Corp,Product 19,Distributor,7,1252.9,8770.300000000001,764.269,MI,Ottawa County,Michigan,Midwest,42.90538,-85.8446,1645841.6
46891,SO - 0001549,2017-01-14,Brainspher Ltd,Product 14,Distributor,11,261.3,2874.3,222.105,CA,Fresno County,California,West,36.74773,-119.77237,4028698.4090000005
46892,SO - 0001992,2017-01-14,H Ltd,Product 6,Export,11,897.8000000000001,9875.800000000001,493.7900000000001,CA,Stanislaus County,California,West,37.6391,-120.99688,1672229.416
46893,SO - 0002573,2017-01-14,Aromaticos Company,Product 20,Distributor,7,5306.400000000001,37144.8,4351.2480000000005,FL,Palm Beach County,Florida,South,26.65868,-80.24144,2067108.1199999999
46894,SO - 0005217,2017-01-14,Gigabox Group,Product 27,Distributor,7,1983.2,13882.4,1487.4,TX,Cameron County,Texas,South,25.90175,-97.49748,964940.2310000001
46895,SO - 0005265,2017-01-14,Rooxo Company,Product 8,Distributor,8,1072.0,8576.0,600.32,CA,Los Angeles County,California,West,33.83585,-118.34063,1085037.3290000001
46896,SO - 0009156,2017-01-14,H Ltd,Product 13,Wholesale,11,1742.0,19162.0,992.9399999999999,CA,Los Angeles County,California,West,34.06862,-117.93895,3720639.645
46897,SO - 0008405,2017-01-14,Johnson Ltd,Product 8,Wholesale,11,1701.8,18719.8,1276.35,CA,Yolo County,California,West,38.54491,-121.74052,1085037.3290000001
46898,SO - 0001708,2017-01-14,Fatz Group,Product 6,Wholesale,7,1139.0,7973.0,797.3,AL,Dale County/Houston County/Henry County,Alabama,South,31.2337,-85.40682,1672229.416
46899,SO - 0001848,2017-01-14,Wordware Company,Product 2,Wholesale,10,3651.5,36515.0,1606.66,CA,Contra Costa County,California,West,38.02798,-121.88468,3050087.565
46900,SO - 0002279,2017-01-14,Jaxbean Group,Product 4,Wholesale,9,5601.2,50410.799999999996,3080.6600000000003,MA,Middlesex County,Massachusetts,Northeast,42.33704,-71.20922,2885560.824
46901,SO - 0004006,2017-01-14,Ozu Ltd,Product 5,Distributor,11,1715.2,18867.2,943.3600000000001,NV,Clark County,Nevada,West,36.09719,-115.14666,3925424.5420000004
46902,SO - 0005315,2017-01-14,Eire Corp,Product 26,Distributor,11,261.3,2874.3,222.105,CT,New Haven County,Connecticut,Northeast,41.22509,-73.06111,5685138.2700000005
46903,SO - 0010083,2017-01-14,Shuffledri Group,Product 6,Distributor,10,1192.6000000000001,11926.000000000002,954.0800000000002,VA,Virginia Beach city,Virginia,South,36.85293,-75.97799,1672229.416
46904,SO - 0010653,2017-01-14,Skinder Group,Product 27,Wholesale,11,1929.6000000000001,21225.600000000002,1138.464,NC,Gaston County,North Carolina,South,35.26208,-81.1873,964940.2310000001
46905,SO - 0002273,2017-01-14,Epic Group,Product 13,Wholesale,9,1139.0,10251.0,751.74,CA,Orange County,California,West,33.70918,-117.95367,3720639.645
46906,SO - 0002951,2017-01-14,Podcat Corp,Product 10,Wholesale,7,1849.2,12944.4,1294.44,IL,Cook County,Illinois,Midwest,42.08836,-87.98063,864331.624
46907,SO - 0003061,2017-01-14,CARDINAL Group,Product 26,Wholesale,6,1688.4,10130.400000000001,1401.372,CA,Alameda County,California,West,37.72493,-122.15608,5685138.2700000005
46908,SO - 0003381,2017-01-14,Voolia Ltd,Product 19,Wholesale,11,1025.1000000000001,11276.100000000002,727.821,IL,Cook County,Illinois,Midwest,42.04114,-87.69006,1645841.6
46909,SO - 0006005,2017-01-14,Skyble Corp,Product 14,Export,9,2512.5,22612.5,1231.125,OR,Washington County,Oregon,West,45.43123,-122.77149,4028698.4090000005
46910,SO - 0006978,2017-01-14,US Ltd,Product 17,Distributor,11,5480.6,60286.600000000006,3288.36,IL,Cook County,Illinois,Midwest,42.02911,-88.08951,2119616.824
46911,SO - 0008245,2017-01-14,Browsetype Corp,Product 17,Export,6,5862.5,35175.0,2872.625,IL,McLean County,Illinois,Midwest,40.5142,-88.99063,2119616.824
46912,SO - 000606,2017-01-14,NARS Group,Product 13,Wholesale,9,958.1,8622.9,756.899,KS,Riley County/Pottawatomie County,Kansas,Midwest,39.18831,-96.60586,3720639.645
46913,SO - 0001607,2017-01-14,Feednation Corp,Product 22,Wholesale,9,2666.6,23999.399999999998,1999.9499999999998,CA,Merced County,California,West,37.30216,-120.48297,663601.902
46914,SO - 0002386,2017-01-14,Skiptube Ltd,Product 1,Wholesale,10,1045.2,10452.0,522.6,TX,Tom Green County,Texas,South,31.46377,-100.43704,3016489.209
46915,SO - 0003986,2017-01-14,Buzzbean Group,Product 2,Distributor,5,5768.7,28843.5,4384.2119999999995,CA,Monterey County,California,West,36.67774,-121.6555,3050087.565
46916,SO - 0004356,2017-01-14,Terumo Corp,Product 4,Distributor,5,3470.6,17353.0,2151.772,CA,San Bernardino County,California,West,34.09751,-117.64839,2885560.824
46917,SO - 0004644,2017-01-14,Bath Group,Product 26,Wholesale,11,2586.2000000000003,28448.200000000004,1370.6860000000001,MO,Jackson County,Missouri,Midwest,39.01695,-94.28161,5685138.2700000005
46918,SO - 0004934,2017-01-14,Skyble Corp,Product 9,Export,5,174.20000000000002,871.0000000000001,128.90800000000002,VA,Prince William County,Virginia,South,38.63706,-77.31109,710415.405
46919,SO - 0004977,2017-01-14,Kare Corp,Product 8,Wholesale,5,1139.0,5695.0,466.98999999999995,NE,Sarpy County,Nebraska,Midwest,41.13667,-95.89084,1085037.3290000001
46920,SO - 0007577,2017-01-14,Holston Company,Product 25,Distributor,12,1038.5,12462.0,591.9449999999999,CA,Santa Clara County,California,West,37.33939,-121.89496,5342315.484
46921,SO - 0007703,2017-01-14,sanofi-ave Group,Product 15,Wholesale,5,1983.2,9916.0,1685.72,MA,Suffolk County,Massachusetts,Northeast,42.35843,-71.05977,3299478.315
46922,SO - 0008257,2017-01-14,WOONSOCKET Corp,Product 1,Wholesale,6,1279.7,7678.200000000001,639.85,AZ,Pinal County,Arizona,West,32.8795,-111.75735,3016489.209
46923,SO - 0008319,2017-01-14,Pixoboo Corp,Product 11,Distributor,5,2398.6,11993.0,1703.0059999999999,FL,Charlotte County,Florida,South,26.97617,-82.09064,1230458.484
46924,SO - 000269,2017-01-14,Gigabox Group,Product 25,Wholesale,5,844.2,4221.0,540.288,PA,Montgomery County,Pennsylvania,Northeast,40.11242,-75.11564,5342315.484
46925,SO - 000931,2017-01-14,US Ltd,Product 18,Distributor,5,1058.6000000000001,5293.000000000001,899.8100000000001,FL,Volusia County,Florida,South,29.13832,-80.99561,2309499.045
46926,SO - 0002562,2017-01-14,Wise Company,Product 23,Distributor,7,4013.3,28093.100000000002,2287.581,NY,Albany County,New York,Northeast,42.65258,-73.75623,1135815.7580000001
46927,SO - 0006753,2017-01-14,Flipstorm Group,Product 4,Wholesale,10,737.0,7370.0,449.57,CA,Contra Costa County,California,West,37.93576,-122.34775,2885560.824
46928,SO - 0008794,2017-01-14,Rochester Group,Product 23,Wholesale,5,3852.5,19262.5,2080.3500000000004,NC,Alamance County/Guilford County,North Carolina,South,36.07613,-79.4683,1135815.7580000001
46929,SO - 000579,2017-01-14,Jaxbean Group,Product 13,Export,8,1246.2,9969.6,660.4860000000001,NY,Schenectady County,New York,Northeast,42.81424,-73.93957,3720639.645
46930,SO - 0001380,2017-01-14,Pixoboo Corp,Product 29,Export,12,991.6,11899.2,654.456,TX,Bell County,Texas,South,31.11712,-97.7278,594471.5700000001
46931,SO - 0002403,2017-01-14,CARDINAL Group,Product 13,Distributor,12,884.4,10612.8,619.0799999999999,MD,Baltimore County,Maryland,South,39.25066,-76.52052,3720639.645
46932,SO - 0002506,2017-01-14,Epic Group,Product 26,Export,12,1949.7,23396.4,896.8620000000001,AZ,Pima County,Arizona,West,32.22174,-110.92648,5685138.2700000005
46933,SO - 0005904,2017-01-14,MEIJER Corp,Product 23,Wholesale,12,1031.8,12381.599999999999,495.26399999999995,CA,San Diego County,California,West,32.79477,-116.96253,1135815.7580000001
46934,SO - 0008370,2017-01-14,Yombu Corp,Product 15,Wholesale,10,4006.6,40066.0,3285.412,PA,Berks County,Pennsylvania,Northeast,40.33565,-75.92687,3299478.315
46935,SO - 000683,2017-01-15,Avavee Group,Product 30,Distributor,6,1038.5,6231.0,706.1800000000001,GA,Richmond County,Georgia,South,33.36149,-82.075,1011609.684
46936,SO - 0001856,2017-01-15,Cantrell Company,Product 8,Wholesale,8,5835.7,46685.6,4201.704,CA,Orange County,California,West,33.52253,-117.70755,1085037.3290000001
46937,SO - 0001859,2017-01-15,Nexus Group,Product 15,Wholesale,8,1112.2,8897.6,912.004,OR,Benton County,Oregon,West,44.56457,-123.26204,3299478.315
46938,SO - 0003618,2017-01-15,Quimm Company,Product 1,Distributor,11,6164.0,67804.0,3020.36,AL,Shelby County/Jefferson County,Alabama,South,33.52744,-86.79905,3016489.209
46939,SO - 0004105,2017-01-15,Zooxo Ltd,Product 16,Wholesale,8,2438.8,19510.4,1999.816,WI,Waukesha County,Wisconsin,Midwest,43.01168,-88.23148,2062061.144
46940,SO - 0005239,2017-01-15,H Ltd,Product 14,Distributor,10,3028.4,30284.0,2150.1639999999998,AZ,Pima County,Arizona,West,32.29785,-110.9187,4028698.4090000005
46941,SO - 0008063,2017-01-15,Jabbercube Corp,Product 5,Wholesale,9,6472.2,58249.799999999996,4983.594,TN,Davidson County,Tennessee,South,36.16913,-86.78479,3925424.5420000004
46942,SO - 0010011,2017-01-15,Realbuzz Ltd,Product 14,Distributor,10,2278.0,22780.0,1116.22,OH,Cuyahoga County,Ohio,Midwest,41.4995,-81.69541,4028698.4090000005
46943,SO - 000389,2017-01-15,Organon Corp,Product 9,Export,9,167.5,1507.5,112.22500000000001,CA,Los Angeles County,California,West,34.57943,-118.11646,710415.405
46944,SO - 000737,2017-01-15,Sanum-Kehl Group,Product 25,Wholesale,5,3718.5,18592.5,2677.3199999999997,FL,Palm Beach County,Florida,South,26.71534,-80.05337,5342315.484
46945,SO - 0001401,2017-01-15,Z.H.T. Group,Product 17,Wholesale,9,1715.2,15436.800000000001,943.3600000000001,NY,Broome County,New York,Northeast,42.12662,-76.03324,2119616.824
46946,SO - 0001528,2017-01-15,True Ltd,Product 2,Wholesale,6,2525.9,15155.400000000001,1944.9430000000002,MD,Frederick County,Maryland,South,39.41427,-77.41054,3050087.565
46947,SO - 0003577,2017-01-15,Fivebridge Ltd,Product 18,Distributor,7,817.4,5721.8,498.614,IL,Cook County,Illinois,Midwest,42.04114,-87.69006,2309499.045
46948,SO - 0004362,2017-01-15,WOCKHARDT Group,Product 15,Distributor,12,1112.2,13346.400000000001,734.052,RI,Providence County,Rhode Island,Northeast,41.82399,-71.41283,3299478.315
46949,SO - 0004953,2017-01-15,Wordtune Company,Product 7,Wholesale,10,1145.7,11457.0,458.28000000000003,NC,Cabarrus County,North Carolina,South,35.40875,-80.57951,889737.555
46950,SO - 0007789,2017-01-15,Epic Group,Product 19,Distributor,5,180.9,904.5,135.675,CA,Merced County,California,West,37.30216,-120.48297,1645841.6
46951,SO - 0004036,2017-01-15,Chatterbri Ltd,Product 16,Distributor,7,3209.3,22465.100000000002,2599.5330000000004,ID,Bonneville County,Idaho,West,43.46658,-112.03414,2062061.144
46952,SO - 0004841,2017-01-15,Talane Group,Product 5,Wholesale,8,3845.8,30766.4,2384.396,FL,Marion County,Florida,South,29.1872,-82.14009,3925424.5420000004
46953,SO - 0005039,2017-01-15,Wordtune Company,Product 28,Wholesale,12,3879.3,46551.600000000006,1551.7200000000003,FL,Miami-Dade County,Florida,South,25.77427,-80.19366,1003867.767
46954,SO - 0005194,2017-01-15,Flipstorm Group,Product 26,Export,12,2318.2000000000003,27818.4,1877.7420000000004,CA,Orange County,California,West,33.6603,-117.99923,5685138.2700000005
46955,SO - 0007964,2017-01-15,Actavis Company,Product 3,Wholesale,7,1802.3,12616.1,1477.886,TN,Sumner County,Tennessee,South,36.30477,-86.62,2642352.432
46956,SO - 0009181,2017-01-15,Voonyx Group,Product 5,Wholesale,11,1098.8,12086.8,922.992,UT,Salt Lake County,Utah,West,40.66772,-111.93883,3925424.5420000004
46957,SO - 0009894,2017-01-15,Wordtune Company,Product 26,Wholesale,9,3095.4,27858.600000000002,1392.93,MN,St. Louis County,Minnesota,Midwest,46.78327,-92.10658,5685138.2700000005
46958,SO - 000131,2017-01-15,Mydo Corp,Product 17,Distributor,7,6076.900000000001,42538.3,2734.6050000000005,UT,Salt Lake County,Utah,West,40.68689,-111.87549,2119616.824
